NOMBRE,EQUIPAMIENTO,ACCESIBILIDAD,CONTENT-URL,NOMBRE-VIA,CLASE-VIAL,NUM,DISTRITO,LATITUD,LONGITUD
Instalación Deportiva  Básica Embalse de San Juan,Pista de baloncesto. Pista de fútbol sala.,2,http://www.madrid.es/sites/v/index.jsp?vgnextchannel=bfa48ab43d6bb410VgnVCM100000171f5a0aRCRD&vgnextoid=fa29f533a3468710VgnVCM1000001d4a900aRCRD,EMBALSE DE SAN JUAN,CALLE,1,VILLA DE VALLECAS,40.36264285659688,-3.5981484314802064
Instalación Deportiva Básica Alto del Retiro,Pista polideportiva (marcajes de fútbol sala y balonmano) Pista baloncesto,2,http://www.madrid.es/sites/v/index.jsp?vgnextchannel=bfa48ab43d6bb410VgnVCM100000171f5a0aRCRD&vgnextoid=5a7c2150461f5310VgnVCM1000000b205a0aRCRD,ALTO DEL RETIRO,CALLE,13,VILLA DE VALLECAS,40.36751469466709,-3.588264644913803
Instalación Deportiva Básica Avenida de Cerro Milano,Pista de minibaloncesto. Pista de minifútbol,2,http://www.madrid.es/sites/v/index.jsp?vgnextchannel=bfa48ab43d6bb410VgnVCM100000171f5a0aRCRD&vgnextoid=c3ccd112cde58710VgnVCM1000001d4a900aRCRD,CERRO MILANO,AVENIDA,1,VILLA DE VALLECAS,40.36861899124304,-3.618356801446381
Instalación Deportiva Básica Avenida de las Suertes,Pista de baloncesto. Pista polideportiva (marcajes de fútbol sala y voleibol).,0,http://www.madrid.es/sites/v/index.jsp?vgnextchannel=bfa48ab43d6bb410VgnVCM100000171f5a0aRCRD&vgnextoid=b777d112cde58710VgnVCM1000001d4a900aRCRD,avenida de las Suertes,AVENIDA,,VILLA DE VALLECAS,40.37029726652408,-3.6120673755658
Instalación Deportiva Básica Avenida del Ensanche de Vallecas,Pista de minibaloncesto. Pista de minifútbol. Pista de skate.,2,http://www.madrid.es/sites/v/index.jsp?vgnextchannel=bfa48ab43d6bb410VgnVCM100000171f5a0aRCRD&vgnextoid=867fd112cde58710VgnVCM1000001d4a900aRCRD,ENSANCHE DE VALLECAS,AVENIDA,11,VILLA DE VALLECAS,40.37029726652408,-3.6120673755658
Instalación Deportiva Básica Avenida del Mediterráneo,Mini pista de patinaje,2,http://www.madrid.es/sites/v/index.jsp?vgnextchannel=bfa48ab43d6bb410VgnVCM100000171f5a0aRCRD&vgnextoid=7e52d112cde58710VgnVCM1000001d4a900aRCRD,LUIS MITJANS,INST. DEPORTIVA BASICA,,DISTRITO,40.40126476374574,-3.670479840720475
Instalación Deportiva Básica Camino de la Suerte,Campo de fútbol 11 de césped artificial.  Campo de fútbol 7 de tierra (próximamente de césped artificial).,0,http://www.madrid.es/sites/v/index.jsp?vgnextchannel=bfa48ab43d6bb410VgnVCM100000171f5a0aRCRD&vgnextoid=9a6fd908b7551110VgnVCM1000000b205a0aRCRD,SUERTE,CAMINO,25,VILLA DE VALLECAS,40.37581378381724,-3.617327043456161
Instalación Deportiva Básica Circuito de Automodelismo,Circuito de automodelismo,0,http://www.madrid.es/sites/v/index.jsp?vgnextchannel=bfa48ab43d6bb410VgnVCM100000171f5a0aRCRD&vgnextoid=cee0b2e617551110VgnVCM1000000b205a0aRCRD,NAVAMURES,CALLE,2,VILLA DE VALLECAS,40.3728517892704,-3.626705109538528
Instalación Deportiva Básica Colonia Vilda,"2 Pistas polideportivas, (marcajes de fútbol sala y balonmano y 2 baloncestos transversales).",2,http://www.madrid.es/sites/v/index.jsp?vgnextchannel=bfa48ab43d6bb410VgnVCM100000171f5a0aRCRD&vgnextoid=617f55fdb3b41110VgnVCM1000000b205a0aRCRD,PUENTELARRA,CALLE,1,VILLA DE VALLECAS,40.38154336396018,-3.610581791001682
Instalación Deportiva Básica Eduardo Chillida,Pista de minibaloncesto y minifútbol.,0,http://www.madrid.es/sites/v/index.jsp?vgnextchannel=bfa48ab43d6bb410VgnVCM100000171f5a0aRCRD&vgnextoid=c981763979368710VgnVCM1000001d4a900aRCRD,EDUARDO CHILLIDA,CALLE,1,VILLA DE VALLECAS,40.36302244550467,-3.585074019427532
Instalación Deportiva Básica Jardines de José Luis Sampedro (junto al Centro Cultural Galileo),Circuito de bicicletas,3,http://www.madrid.es/sites/v/index.jsp?vgnextchannel=bfa48ab43d6bb410VgnVCM100000171f5a0aRCRD&vgnextoid=b6de45fd3c7e9610VgnVCM1000001d4a900aRCRD,JOSE LUIS SAMPEDRO,JARDIN,,DISTRITO,40.43386078113328,-3.710817294009322
Instalación Deportiva Básica Jardines del Teniente Alcalde,Pista polideportiva Pista de hockey Área multideportiva infantil,3,http://www.madrid.es/sites/v/index.jsp?vgnextchannel=bfa48ab43d6bb410VgnVCM100000171f5a0aRCRD&vgnextoid=59182c579bdd9610VgnVCM2000001f4a900aRCRD,Jardines del Teniente Alcalde,CALLE,49,CHAMBERI,40.43935627177327,-3.704371546221416
Instalación Deportiva Básica La Unión,Unidades deportivas cubiertas:  4 Pistas de pádel.    Unidades deportivas al aire libre:  Campo de fútbol 11 de césped artificial.,0,http://www.madrid.es/sites/v/index.jsp?vgnextchannel=bfa48ab43d6bb410VgnVCM100000171f5a0aRCRD&vgnextoid=773aaae91fa41110VgnVCM1000000b205a0aRCRD,ENRIQUE GARCIA ALVAREZ,CALLE,58,VILLA DE VALLECAS,40.383448627578446,-3.6148637823176353
Instalación Deportiva Básica Nuestra Señora de la Torre,2 Campos de Fútbol (césped artificial),0,http://www.madrid.es/sites/v/index.jsp?vgnextchannel=bfa48ab43d6bb410VgnVCM100000171f5a0aRCRD&vgnextoid=de89a56418a41110VgnVCM1000000b205a0aRCRD,PUERTO DE REINOSA,TRAVESIA,2,VILLA DE VALLECAS,40.37850528372228,-3.6160557738839376
Instalación Deportiva Básica P.A.R. Castrillo de Aza,Pista de baloncesto,0,http://www.madrid.es/sites/v/index.jsp?vgnextchannel=bfa48ab43d6bb410VgnVCM100000171f5a0aRCRD&vgnextoid=a554a9b438051110VgnVCM1000000b205a0aRCRD,SANTA EUGENIA,AVENIDA,1,VILLA DE VALLECAS,40.38626820789469,-3.608600721310189
Instalación Deportiva Básica Parkour,Circuito de parkour. Circuito de calistenia. Pista de minibaloncesto. Pista de patinaje.,2,http://www.madrid.es/sites/v/index.jsp?vgnextchannel=bfa48ab43d6bb410VgnVCM100000171f5a0aRCRD&vgnextoid=371ef533a3468710VgnVCM1000001d4a900aRCRD,LA GAVIA,AVENIDA,39,VILLA DE VALLECAS,40.37009915307182,-3.6134620847270176
Instalación Deportiva Básica Parque Real de Arganda,1 Pista de fútbol sala.,2,http://www.madrid.es/sites/v/index.jsp?vgnextchannel=bfa48ab43d6bb410VgnVCM100000171f5a0aRCRD&vgnextoid=5c497740efc26210VgnVCM1000000b205a0aRCRD,REAL DE ARGANDA,CALLE,45,VILLA DE VALLECAS,40.37949103344629,-3.615099935376509
Instalación Deportiva Básica Parque Santa Eugenia,Pista de skate,2,http://www.madrid.es/sites/v/index.jsp?vgnextchannel=bfa48ab43d6bb410VgnVCM100000171f5a0aRCRD&vgnextoid=2204a086b3051110VgnVCM1000000b205a0aRCRD,ZAZUAR,CALLE,12,VILLA DE VALLECAS,40.38131130575197,-3.608459149580722
Instalación Deportiva Básica Parque Villa de Vallecas,Pista de fútbol sala. 2 Pistas de baloncesto (transversales). Pista de skate.,2,http://www.madrid.es/sites/v/index.jsp?vgnextchannel=bfa48ab43d6bb410VgnVCM100000171f5a0aRCRD&vgnextoid=7a14291fa9288710VgnVCM1000001d4a900aRCRD,PUERTO DE PORZUNA,CALLE,50,VILLA DE VALLECAS,40.37277996162931,-3.6253783281885656
Instalación Deportiva Básica Parque de Enrique Herreros,Pista de baloncesto,3,http://www.madrid.es/sites/v/index.jsp?vgnextchannel=bfa48ab43d6bb410VgnVCM100000171f5a0aRCRD&vgnextoid=1aa8cde26f7d9610VgnVCM1000001d4a900aRCRD,BRAVO MURILLO,CALLE,49,CHAMBERI,40.43935627177327,-3.704371546221416
Instalación Deportiva Básica Parque del Cementerio,Pista polideportiva (marcajes de fútbol sala y 2 baloncestos transversales). Pista de fútbol sala.,0,http://www.madrid.es/sites/v/index.jsp?vgnextchannel=bfa48ab43d6bb410VgnVCM100000171f5a0aRCRD&vgnextoid=cd020c3bf9f98710VgnVCM2000001f4a900aRCRD,MONTES DE BARBANZA,CALLE,15,VILLA DE VALLECAS,40.37710310380217,-3.618506339132532
Instalación Deportiva Básica Parroquia Santa Eugenia,Pista de fútbol sala,2,http://www.madrid.es/sites/v/index.jsp?vgnextchannel=bfa48ab43d6bb410VgnVCM100000171f5a0aRCRD&vgnextoid=39a4291fa9288710VgnVCM1000001d4a900aRCRD,VIRGEN DE LAS VI&amp;Ntilde;AS,CALLE,15,VILLA DE VALLECAS,40.38008195615357,-3.608267379645755
Instalación Deportiva Básica Peñaranda de Bracamonte,Pista de baloncesto. Pista polideportiva (marcajes de fútbol sala y balonmano).,2,http://www.madrid.es/sites/v/index.jsp?vgnextchannel=bfa48ab43d6bb410VgnVCM100000171f5a0aRCRD&vgnextoid=52e5291fa9288710VgnVCM1000001d4a900aRCRD,PEÑARANDA DE BRACAMONTE,CALLE,4,VILLA DE VALLECAS,40.37533906377627,-3.604183911642277
Instalación Deportiva Básica Pista de Patinaje,Pista de patinaje,2,http://www.madrid.es/sites/v/index.jsp?vgnextchannel=bfa48ab43d6bb410VgnVCM100000171f5a0aRCRD&vgnextoid=1a96291fa9288710VgnVCM1000001d4a900aRCRD,PUERTO DE PORZUNA,CALLE,0,VILLA DE VALLECAS,40.37277996162931,-3.6253783281885656
Instalación Deportiva Básica Poza de la Sal,Pista de baloncesto,2,http://www.madrid.es/sites/v/index.jsp?vgnextchannel=bfa48ab43d6bb410VgnVCM100000171f5a0aRCRD&vgnextoid=94376b6506551110VgnVCM1000000b205a0aRCRD,POZA DE LA SAL,CALLE,2,VILLA DE VALLECAS,40.37912373319082,-3.602985128269273
Instalación Deportiva Básica Puentelarra,Pista de baloncesto 3 x 3,2,http://www.madrid.es/sites/v/index.jsp?vgnextchannel=bfa48ab43d6bb410VgnVCM100000171f5a0aRCRD&vgnextoid=2716c39144551110VgnVCM1000000b205a0aRCRD,PUENTELARRA,CALLE,12,VILLA DE VALLECAS,40.38324470241852,-3.6091362899378696
Instalación Deportiva Básica Puerto Lumbreras,Pista de baloncesto*,0,http://www.madrid.es/sites/v/index.jsp?vgnextchannel=bfa48ab43d6bb410VgnVCM100000171f5a0aRCRD&vgnextoid=89596635ec288710VgnVCM1000001d4a900aRCRD,POZA DE LA SAL,INST. DEPORTIVA BASICA,,DISTRITO,40.37930773206432,-3.603034130954479
Instalación Deportiva Básica Rocódromo,Pista skate Boulder Monolito,2,http://www.madrid.es/sites/v/index.jsp?vgnextchannel=bfa48ab43d6bb410VgnVCM100000171f5a0aRCRD&vgnextoid=a2f8d4eb171f5310VgnVCM1000000b205a0aRCRD,LA GAVIA,AVENIDA,4,VILLA DE VALLECAS,40.37678620920142,-3.608936762154641
Instalación Deportiva Básica Santa Eugenia,2 Campos de fútbol (césped artificial),0,http://www.madrid.es/sites/v/index.jsp?vgnextchannel=bfa48ab43d6bb410VgnVCM100000171f5a0aRCRD&vgnextoid=2a57671143788710VgnVCM1000001d4a900aRCRD,CERRO DE ALMODOVAR,CALLE,11,VILLA DE VALLECAS,40.38004993117393,-3.6015066796262865
Instalación Deportiva Básica Skate Real de Arganda,Bowl Pista de skate,2,http://www.madrid.es/sites/v/index.jsp?vgnextchannel=bfa48ab43d6bb410VgnVCM100000171f5a0aRCRD&vgnextoid=fa2a6635ec288710VgnVCM1000001d4a900aRCRD,REAL DE ARGANDA,CALLE,49,VILLA DE VALLECAS,40.37949103344629,-3.615099935376509
Instalación Deportiva Básica Stela Maris,Pista de minibaloncesto y minifútbol,0,http://www.madrid.es/sites/v/index.jsp?vgnextchannel=bfa48ab43d6bb410VgnVCM100000171f5a0aRCRD&vgnextoid=346a6635ec288710VgnVCM1000001d4a900aRCRD,PEÑARANDA DE BRACAMONTE,CALLE,4,VILLA DE VALLECAS,40.37533906377627,-3.604183911642277
Instalación Deportiva Municipal Básica Abrantes - Colonia Velázquez,1 Campo de fútbol,0,http://www.madrid.es/sites/v/index.jsp?vgnextchannel=bfa48ab43d6bb410VgnVCM100000171f5a0aRCRD&vgnextoid=06d068171cef4110VgnVCM1000000b205a0aRCRD,ABRANTES,AVENIDA,297,CARABANCHEL,40.37480368698169,-3.734643175737238
Instalación Deportiva Municipal Básica Acuario,Circuito de vida Pista de patinaje,0,http://www.madrid.es/sites/v/index.jsp?vgnextchannel=bfa48ab43d6bb410VgnVCM100000171f5a0aRCRD&vgnextoid=e30c5d9606508810VgnVCM1000001d4a900aRCRD,MISTRAL,CALLE,1,BARAJAS,40.47180614693975,-3.597137551746909
Instalación Deportiva Municipal Básica Alameda de Osuna I,2 Pistas de Baloncesto,0,http://www.madrid.es/sites/v/index.jsp?vgnextchannel=bfa48ab43d6bb410VgnVCM100000171f5a0aRCRD&vgnextoid=a3560735dead1110VgnVCM1000000b205a0aRCRD,BALANDRO,CALLE,1,BARAJAS,40.451251451000815,-3.590562683954837
Instalación Deportiva Municipal Básica Alas,1 Pista de fútbol sala1 Pista de baloncesto4 Pistas de petanca,0,http://www.madrid.es/sites/v/index.jsp?vgnextchannel=bfa48ab43d6bb410VgnVCM100000171f5a0aRCRD&vgnextoid=d67d5c51350e1110VgnVCM1000000b205a0aRCRD,ALAS,CALLE,2,BARAJAS,40.472046513237736,-3.5847993053542355
Instalación Deportiva Municipal Básica Albaicín,1 Pista de balonmano,2,http://www.madrid.es/sites/v/index.jsp?vgnextchannel=bfa48ab43d6bb410VgnVCM100000171f5a0aRCRD&vgnextoid=6e518d498a5e1110VgnVCM1000000b205a0aRCRD,ALBAICIN,CALLE,19,USERA,40.36818417178253,-3.702392476781408
Instalación Deportiva Municipal Básica Albaida,1 Patinódromo,0,http://www.madrid.es/sites/v/index.jsp?vgnextchannel=bfa48ab43d6bb410VgnVCM100000171f5a0aRCRD&vgnextoid=040cbad143ae1110VgnVCM1000000b205a0aRCRD,ALBAIDA,CALLE,S/N,SAN BLAS-CANILLEJAS,40.430241502639134,-3.619981910665231
Instalación Deportiva Municipal Básica Alcalde Martín de Alzaga,1 Pista de baloncesto,0,http://www.madrid.es/sites/v/index.jsp?vgnextchannel=bfa48ab43d6bb410VgnVCM100000171f5a0aRCRD&vgnextoid=4257664d01ef0110VgnVCM1000000b205a0aRCRD,ALCALDE MARTIN DE ALZAGA,CALLE,S/N,MONCLOA-ARAVACA,40.46295611393323,-3.716129120337457
Instalación Deportiva Municipal Básica Alerce,1 Pista polideportiva,2,http://www.madrid.es/sites/v/index.jsp?vgnextchannel=bfa48ab43d6bb410VgnVCM100000171f5a0aRCRD&vgnextoid=42ae586285ae1110VgnVCM1000000b205a0aRCRD,ALERCE,CALLE,31,USERA,40.365063948772985,-3.695446430865286
Instalación Deportiva Municipal Básica Alfonso XIII,2 pistas de baloncesto.1 pista de patinaje.2 campos de bolos y petanca.,2,http://www.madrid.es/sites/v/index.jsp?vgnextchannel=bfa48ab43d6bb410VgnVCM100000171f5a0aRCRD&vgnextoid=ea63124827ee0110VgnVCM1000000b205a0aRCRD,"ALFONSO XIII c/v SANTA MARÍA MAGDALENA, 2",AVENIDA,136,CHAMARTIN,40.45990434942118,-3.669142805075655
Instalación Deportiva Municipal Básica Alhaurín,1 Pista de baloncesto1 Campo de fútbol 7 (de tierra),0,http://www.madrid.es/sites/v/index.jsp?vgnextchannel=bfa48ab43d6bb410VgnVCM100000171f5a0aRCRD&vgnextoid=acda62a9470e1110VgnVCM1000000b205a0aRCRD,ALHAURIN,CALLE,4,BARAJAS,40.47351067334567,-3.585649589064375
Instalación Deportiva Municipal Básica Alicún,1 Pista de baloncesto.,2,http://www.madrid.es/sites/v/index.jsp?vgnextchannel=bfa48ab43d6bb410VgnVCM100000171f5a0aRCRD&vgnextoid=4c4d7e93dee61110VgnVCM1000000b205a0aRCRD,ALICUN,CALLE,24,HORTALEZA,40.47947157886463,-3.661361646257895
Instalación Deportiva Municipal Básica Aliseda,Superficie: 700 M2  Equipamientos: 1 Pista polideportiva,0,http://www.madrid.es/sites/v/index.jsp?vgnextchannel=bfa48ab43d6bb410VgnVCM100000171f5a0aRCRD&vgnextoid=d5e92f9841a61110VgnVCM1000000b205a0aRCRD,ALISEDA,CALLE,0,CARABANCHEL,40.3761084833036,-3.74193729795335
Instalación Deportiva Municipal Básica Almudena,1 Campo de fútbol1 Pista polideportiva,0,http://www.madrid.es/sites/v/index.jsp?vgnextchannel=bfa48ab43d6bb410VgnVCM100000171f5a0aRCRD&vgnextoid=b6ed945136891110VgnVCM1000000b205a0aRCRD,NICOLAS SALMERON,CALLE,8,CIUDAD LINEAL,40.41909002674735,-3.62966306755892
Instalación Deportiva Municipal Básica Ambulatorio (El Paraiso),1 Pista de fútbol sala2 Pistas de baloncesto5 Pistas de petancaSkatepark,0,http://www.madrid.es/sites/v/index.jsp?vgnextchannel=bfa48ab43d6bb410VgnVCM100000171f5a0aRCRD&vgnextoid=d0822414d35e1110VgnVCM1000000b205a0aRCRD,AJOFRIN,CALLE,s/n,SAN BLAS-CANILLEJAS,40.425607242600144,-3.6256685841403034
Instalación Deportiva Municipal Básica Americio,1 Pista de baloncesto.,0,http://www.madrid.es/sites/v/index.jsp?vgnextchannel=bfa48ab43d6bb410VgnVCM100000171f5a0aRCRD&vgnextoid=061c880b0aab8210VgnVCM2000000c205a0aRCRD,AMERICIO,CALLE,s/n,VILLAVERDE,40.356238545684384,-3.6827549805431934
Instalación Deportiva Municipal Básica Ana Tutor,1 Pista de patinaje1 Pista de fútbol-sala,0,http://www.madrid.es/sites/v/index.jsp?vgnextchannel=bfa48ab43d6bb410VgnVCM100000171f5a0aRCRD&vgnextoid=bce62b6315d35310VgnVCM2000000c205a0aRCRD,CARDENAL HERRERA ORIA,AVENIDA,216,FUENCARRAL-EL PARDO,40.49087287315406,-3.6865580970863943
Instalación Deportiva Municipal Básica Andévalo,1 Pista de fútbol sala,0,http://www.madrid.es/sites/v/index.jsp?vgnextchannel=bfa48ab43d6bb410VgnVCM100000171f5a0aRCRD&vgnextoid=c8c6ed32dd2c2110VgnVCM1000000b205a0aRCRD,ANDEVALO,CALLE,6,PUENTE DE VALLECAS,40.374404666864585,-3.668237382541929
Instalación Deportiva Municipal Básica Anfevi,Pista de fútbol sala2 Pistas de baloncesto,0,http://www.madrid.es/sites/v/index.jsp?vgnextchannel=bfa48ab43d6bb410VgnVCM100000171f5a0aRCRD&vgnextoid=3efff1c446391110VgnVCM2000000c205a0aRCRD,HACIENDA DE PAVONES,CALLE,127,MORATALAZ,40.403438145048085,-3.640076254498283
Instalación Deportiva Municipal Básica Aniceto Marinas,1 Pista de Baloncesto,0,http://www.madrid.es/sites/v/index.jsp?vgnextchannel=bfa48ab43d6bb410VgnVCM100000171f5a0aRCRD&vgnextoid=20f7c57598ee0110VgnVCM1000000b205a0aRCRD,ANICETO MARINAS,CALLE,106,MONCLOA-ARAVACA,40.43121588404326,-3.7336179867525616
Instalación Deportiva Municipal Básica Antonio Machado,1 Pista de Baloncesto,0,http://www.madrid.es/sites/v/index.jsp?vgnextchannel=bfa48ab43d6bb410VgnVCM100000171f5a0aRCRD&vgnextoid=b37f532996ef0110VgnVCM1000000b205a0aRCRD,ANTONIO MACHADO,CALLE,14,MONCLOA-ARAVACA,40.46606393146319,-3.71907563377333
Instalación Deportiva Municipal Básica Antonio Pirala,1 Pista de fútbol sala2 Pistas de baloncesto,0,http://www.madrid.es/sites/v/index.jsp?vgnextchannel=bfa48ab43d6bb410VgnVCM100000171f5a0aRCRD&vgnextoid=70b945dbd6891110VgnVCM1000000b205a0aRCRD,ANTONIO PIRALA,CALLE,s/n,CIUDAD LINEAL,40.43075144945157,-3.6596933792999033
Instalación Deportiva Municipal Básica Arcaute,"1 Pista polideportiva (con marcajes de fútbol sala, tenis y baloncesto)",0,http://www.madrid.es/sites/v/index.jsp?vgnextchannel=bfa48ab43d6bb410VgnVCM100000171f5a0aRCRD&vgnextoid=59b6957e54ae1110VgnVCM1000000b205a0aRCRD,INVIERNO,AVENIDA,1,SAN BLAS-CANILLEJAS,40.443627672731296,-3.576711464888384
Instalación Deportiva Municipal Básica Arcos de Jalón,1 Pista polideportiva2 Pistas de baloncesto1 Pista de voleibol1 Pista de patinaje,0,http://www.madrid.es/sites/v/index.jsp?vgnextchannel=bfa48ab43d6bb410VgnVCM100000171f5a0aRCRD&vgnextoid=352e8c86d45e1110VgnVCM1000000b205a0aRCRD,ARCOS DE JALON,CALLE,s/n,SAN BLAS-CANILLEJAS,40.42425405686439,-3.615942488088141
Instalación Deportiva Municipal Básica Arequipa,2 pistas de bolos y petanca,2,http://www.madrid.es/sites/v/index.jsp?vgnextchannel=bfa48ab43d6bb410VgnVCM100000171f5a0aRCRD&vgnextoid=88e2d141f97c5110VgnVCM1000000b205a0aRCRD,AREQUIPA,CALLE,12,HORTALEZA,40.46888551843247,-3.6390339556431934
Instalación Deportiva Municipal Básica Arganda,1 Pista de Fútbol-Sala,0,http://www.madrid.es/sites/v/index.jsp?vgnextchannel=bfa48ab43d6bb410VgnVCM100000171f5a0aRCRD&vgnextoid=4cd10cd0d5471110VgnVCM1000000b205a0aRCRD,ARGANDA,CALLE,10,ARGANZUELA,40.40011363617556,-3.708097745547213
Instalación Deportiva Municipal Básica Arjona,1 Campo de Fútbol,0,http://www.madrid.es/sites/v/index.jsp?vgnextchannel=bfa48ab43d6bb410VgnVCM100000171f5a0aRCRD&vgnextoid=01aef0716c2b2110VgnVCM1000000b205a0aRCRD,CONCEJAL FRANCISCO JOSE JIMENEZ MARTIN,CALLE,11,LATINA,40.39998426244181,-3.7486569900905633
Instalación Deportiva Municipal Básica Arriaga,2 Pistas de baloncesto1 Pista de fútbol sala,0,http://www.madrid.es/sites/v/index.jsp?vgnextchannel=bfa48ab43d6bb410VgnVCM100000171f5a0aRCRD&vgnextoid=82f65e9248c91110VgnVCM1000000b205a0aRCRD,DAROCA,AVENIDA,95,CIUDAD LINEAL,40.425090271008656,-3.642721665241288
Instalación Deportiva Municipal Básica Arroyo Belincoso,2 Pistas baloncesto1 Pista fúbol-sala,0,http://www.madrid.es/sites/v/index.jsp?vgnextchannel=bfa48ab43d6bb410VgnVCM100000171f5a0aRCRD&vgnextoid=e812bcfa0b606310VgnVCM1000000b205a0aRCRD,DOCTOR GARCIA TAPIA,AVENIDA,76,MORATALAZ,40.41206030334087,-3.651284078326445
Instalación Deportiva Municipal Básica Arroyo Fontarrón,Pista de fútbol sala,0,http://www.madrid.es/sites/v/index.jsp?vgnextchannel=bfa48ab43d6bb410VgnVCM100000171f5a0aRCRD&vgnextoid=06d0c9ba6f391110VgnVCM2000000c205a0aRCRD,ARROYO FONTARRON,CALLE,381,MORATALAZ,40.39571737351038,-3.636809858433754
Instalación Deportiva Municipal Básica Arroyo Media Legua,1 Campo de fútbol2 Pistas de fútbol sala1 Pista de baloncesto,0,http://www.madrid.es/sites/v/index.jsp?vgnextchannel=bfa48ab43d6bb410VgnVCM100000171f5a0aRCRD&vgnextoid=140a5e8f052a1110VgnVCM1000000b205a0aRCRD,ARROYO DE LA MEDIA LEGUA,INST. DEPORTIVA BASICA,,DISTRITO,40.42248384692211,-3.64868008730734
Instalación Deportiva Municipal Básica Arroyo de Opañel,1 Pista polideportiva,0,http://www.madrid.es/sites/v/index.jsp?vgnextchannel=bfa48ab43d6bb410VgnVCM100000171f5a0aRCRD&vgnextoid=d06f941b73305110VgnVCM1000000b205a0aRCRD,ARROYO OPAÑEL,CALLE,12,CARABANCHEL,40.38849471888208,-3.717872942583152
Instalación Deportiva Municipal Básica Aster - Lirios,1 Pista de Fútbol-Sala,2,http://www.madrid.es/sites/v/index.jsp?vgnextchannel=bfa48ab43d6bb410VgnVCM100000171f5a0aRCRD&vgnextoid=844fcc390c802110VgnVCM1000000b205a0aRCRD,ALFONSO XIII (posterior),AVENIDA,126,CHAMARTIN,40.4584136629216,-3.667177015228611
Instalación Deportiva Municipal Básica Auditorio de Chamartín,Pista de Baloncesto,2,http://www.madrid.es/sites/v/index.jsp?vgnextchannel=bfa48ab43d6bb410VgnVCM100000171f5a0aRCRD&vgnextoid=f969f99d08129210VgnVCM1000000b205a0aRCRD,JOAQUIN RODRIGO,PLAZA,1,CHAMARTIN,40.44549718316204,-3.677183546596661
Instalación Deportiva Municipal Básica Auditorio de Moratalaz,1 Pista de fútbol sala 2 Tenis de mesa,0,http://www.madrid.es/sites/v/index.jsp?vgnextchannel=bfa48ab43d6bb410VgnVCM100000171f5a0aRCRD&vgnextoid=6f36c9ba6f391110VgnVCM2000000c205a0aRCRD,HACIENDA DE PAVONES,CALLE,209,MORATALAZ,40.40142760716397,-3.6370875655785446
Instalación Deportiva Municipal Básica Avenida Moratalaz M-30,1 Pista de patinaje1 Pista de baloncesto,0,http://www.madrid.es/sites/v/index.jsp?vgnextchannel=bfa48ab43d6bb410VgnVCM100000171f5a0aRCRD&vgnextoid=428ac1f812491110VgnVCM2000000c205a0aRCRD,RAMON ARECES,CALLE,1,MORATALAZ,40.40799695992161,-3.6624292972075247
Instalación Deportiva Municipal Básica Avenida San Luis I,2 Tenis de mesa,0,http://www.madrid.es/sites/v/index.jsp?vgnextchannel=bfa48ab43d6bb410VgnVCM100000171f5a0aRCRD&vgnextoid=a8bef12fa4f61110VgnVCM1000000b205a0aRCRD,SAN LUIS,AVENIDA,(frentealnº86),HORTALEZA,40.47176777610935,-3.655234408097839
Instalación Deportiva Municipal Básica Avenida de Brasil,1 Pista de fútbol - sala,2,http://www.madrid.es/sites/v/index.jsp?vgnextchannel=bfa48ab43d6bb410VgnVCM100000171f5a0aRCRD&vgnextoid=55851b40e9891110VgnVCM2000000c205a0aRCRD,BRASIL,AVENIDA,19,TETUAN,40.45732746079714,-3.693648871749584
Instalación Deportiva Municipal Básica Ayacucho,1 pista de baloncesto,2,http://www.madrid.es/sites/v/index.jsp?vgnextchannel=bfa48ab43d6bb410VgnVCM100000171f5a0aRCRD&vgnextoid=8fc5bca369a51110VgnVCM1000000b205a0aRCRD,NEVADO DEL RUIZ,CALLE,2,HORTALEZA,40.46980031598844,-3.6352736110765855
Instalación Deportiva Municipal Básica Bacares (Rocódromo),Rocódromo Zona de calistenia,2,http://www.madrid.es/sites/v/index.jsp?vgnextchannel=bfa48ab43d6bb410VgnVCM100000171f5a0aRCRD&vgnextoid=1150d952c30de610VgnVCM1000001d4a900aRCRD,BACARES,CALLE,9,HORTALEZA,40.476321176468005,-3.6624133831469945
Instalación Deportiva Municipal Básica Bacares (fútbol),1 Campo de fútbol-sala pavimentado1 Pista de voleibol1 Pista de minibaloncesto1 Pista de patinaje1 Pista de skate,2,http://www.madrid.es/sites/v/index.jsp?vgnextchannel=bfa48ab43d6bb410VgnVCM100000171f5a0aRCRD&vgnextoid=b9ed7874b8f61110VgnVCM1000000b205a0aRCRD,BACARES,CALLE,27,HORTALEZA,40.47743047451657,-3.663819108324953
Instalación Deportiva Municipal Básica Bahía de Santander II,1 Pista de fútbol sala,0,http://www.madrid.es/sites/v/index.jsp?vgnextchannel=bfa48ab43d6bb410VgnVCM100000171f5a0aRCRD&vgnextoid=660c90270a0e1110VgnVCM1000000b205a0aRCRD,BAHIA DE SANTANDER,CALLE,64,BARAJAS,40.46527791543298,-3.594188775058509
Instalación Deportiva Municipal Básica Barceló,1 Pista Polideportiva,0,http://www.madrid.es/sites/v/index.jsp?vgnextchannel=bfa48ab43d6bb410VgnVCM100000171f5a0aRCRD&vgnextoid=5875169c57c91110VgnVCM2000000c205a0aRCRD,BARCELO,PLAZA,S/N,CENTRO,40.42677040240585,-3.699382450864087
Instalación Deportiva Municipal Básica Barrio El Querol - Spartac de Manoteras,1 Campo de fútbol 11 césped artificial,2,http://www.madrid.es/sites/v/index.jsp?vgnextchannel=bfa48ab43d6bb410VgnVCM100000171f5a0aRCRD&vgnextoid=9509f65195a51110VgnVCM1000000b205a0aRCRD,TIJOLA,CALLE,1,HORTALEZA,40.480800850285206,-3.659267661643925
Instalación Deportiva Municipal Básica Barrio Goya,1 Campo de fútbol,0,http://www.madrid.es/sites/v/index.jsp?vgnextchannel=bfa48ab43d6bb410VgnVCM100000171f5a0aRCRD&vgnextoid=e904184a5b902110VgnVCM1000000b205a0aRCRD,SEPULVEDA,CALLE,9,LATINA,40.40397057983696,-3.738177408397536
Instalación Deportiva Municipal Básica Barrio IV,2 Pistas baloncesto1 Pista fúbol-sala,0,http://www.madrid.es/sites/v/index.jsp?vgnextchannel=bfa48ab43d6bb410VgnVCM100000171f5a0aRCRD&vgnextoid=945663952e391110VgnVCM2000000c205a0aRCRD,LUIS DE HOYOS SAINZ,CALLE,150,MORATALAZ,40.40272360732888,-3.634047589018456
Instalación Deportiva Municipal Básica Barrio de Las Cárcavas,Pista de skate,0,http://www.madrid.es/sites/v/index.jsp?vgnextchannel=bfa48ab43d6bb410VgnVCM100000171f5a0aRCRD&vgnextoid=34eba9e48ae61110VgnVCM1000000b205a0aRCRD,MONTORO,CAMINO,4,HORTALEZA,40.48002694808795,-3.6322988549742967
Instalación Deportiva Municipal Básica Barrio de Las Cárcavas- Aurora Redondo,Campo fútbol 11 césped artificial,0,http://www.madrid.es/sites/v/index.jsp?vgnextchannel=bfa48ab43d6bb410VgnVCM100000171f5a0aRCRD&vgnextoid=ce4c275562b88810VgnVCM2000001f4a900aRCRD,RAFAELA APARICIO,CALLE,3,HORTALEZA,40.479310091721416,-3.631576231392676
Instalación Deportiva Municipal Básica Barrio de Santa Ana - Andrés Navarrete,Campo de fútbol 11 (césped artificial). Campo de fútbol 7 (césped artificial). 2 pistas de bolos y petanca.,0,http://www.madrid.es/sites/v/index.jsp?vgnextchannel=bfa48ab43d6bb410VgnVCM100000171f5a0aRCRD&vgnextoid=f876d9359e735310VgnVCM2000000c205a0aRCRD,HOSPITALET DE LLOBREGAT,CALLE,11,FUENCARRAL-EL PARDO,40.49452475361937,-3.694665369930073
Instalación Deportiva Municipal Básica Barrio del Aeropuerto,1 Campo de fútbol 1 Pista polideportiva (con marcajes de fútbol sala y baloncesto)2 Tenis de mesa,0,http://www.madrid.es/sites/v/index.jsp?vgnextchannel=bfa48ab43d6bb410VgnVCM100000171f5a0aRCRD&vgnextoid=43ea70af27fd1110VgnVCM1000000b205a0aRCRD,MEDINA DE POMAR,CALLE,14,BARAJAS,40.45120159850761,-3.5844180853262886
Instalación Deportiva Municipal Básica Baterías - Barrio Alegría,1 Pista de fútbol sala1 Pista de baloncesto1 Pista de patinaje,0,http://www.madrid.es/sites/v/index.jsp?vgnextchannel=bfa48ab43d6bb410VgnVCM100000171f5a0aRCRD&vgnextoid=9d2677e116d91110VgnVCM1000000b205a0aRCRD,JUAN PÉREZ ZÚÑIGA,CALLE,s/n,CIUDAD LINEAL,40.44135712495445,-3.6481826411853
Instalación Deportiva Municipal Básica Belzunegui,1 Pista de baloncesto,0,http://www.madrid.es/sites/v/index.jsp?vgnextchannel=bfa48ab43d6bb410VgnVCM100000171f5a0aRCRD&vgnextoid=a6649adbecef4110VgnVCM1000000b205a0aRCRD,BELZUNEGUI,CALLE,,CARABANCHEL,40.37487463533173,-3.739061311753124
Instalación Deportiva Municipal Básica Boston,"1 Pista polideportiva cubierta (con marcajes de baloncesto, fútbol sala y balonmano)1 Tenis de Mesa",1,http://www.madrid.es/sites/v/index.jsp?vgnextchannel=bfa48ab43d6bb410VgnVCM100000171f5a0aRCRD&vgnextoid=9386395961e4f010VgnVCM2000000c205a0aRCRD,BOSTON,CALLE,1,SALAMANCA,40.43729691048299,-3.666690201277176
Instalación Deportiva Municipal Básica Briviesca,2 Pista de baloncesto2 Pista de pádel,0,http://www.madrid.es/sites/v/index.jsp?vgnextchannel=bfa48ab43d6bb410VgnVCM100000171f5a0aRCRD&vgnextoid=5cbb9256c6bed210VgnVCM1000000b205a0aRCRD,BRIVIESCA,CALLE,4,CIUDAD LINEAL,40.48183793645468,-3.666587942769085
Instalación Deportiva Municipal Básica Brujas,1 Pista de fútbol sala.,0,http://www.madrid.es/sites/v/index.jsp?vgnextchannel=bfa48ab43d6bb410VgnVCM100000171f5a0aRCRD&vgnextoid=6a1a83dbd6891110VgnVCM2000000c205a0aRCRD,BRUJAS,CALLE,32,MORATALAZ,40.39944882958802,-3.6282662898026574
Instalación Deportiva Municipal Básica Brunete,1 pista de baloncesto1 pista de fútbol-sala,0,http://www.madrid.es/sites/v/index.jsp?vgnextchannel=bfa48ab43d6bb410VgnVCM100000171f5a0aRCRD&vgnextoid=1be011a8111d4310VgnVCM2000000c205a0aRCRD,BRUNETE,CALLE,1,FUENCARRAL-EL PARDO,40.51667296021272,-3.773795776219611
Instalación Deportiva Municipal Básica Burgo de Osma,1 Pista polideportiva,2,http://www.madrid.es/sites/v/index.jsp?vgnextchannel=bfa48ab43d6bb410VgnVCM100000171f5a0aRCRD&vgnextoid=46793331bca51110VgnVCM1000000b205a0aRCRD,BURGO DE OSMA,CALLE,5,HORTALEZA,40.46902347728972,-3.662533119132141
Instalación Deportiva Municipal Básica Burgos,7 Pistas de Pádel,0,http://www.madrid.es/sites/v/index.jsp?vgnextchannel=bfa48ab43d6bb410VgnVCM100000171f5a0aRCRD&vgnextoid=4b781021e8d81110VgnVCM1000000b205a0aRCRD,BURGOS 18B,AVENIDA,,CHAMARTIN,40.4758640417365,-3.6755842361694255
Instalación Deportiva Municipal Básica C. F. Nuestra Señora del Buen Camino,1 Campo de Fútbol (césped artificial),0,http://www.madrid.es/sites/v/index.jsp?vgnextchannel=bfa48ab43d6bb410VgnVCM100000171f5a0aRCRD&vgnextoid=8789e08dc3ee0110VgnVCM1000000b205a0aRCRD,RIO ZANCARA,GLORIETA,1,MONCLOA-ARAVACA,40.45272561748863,-3.7796095540530086
Instalación Deportiva Municipal Básica C.P. Aragón,1 Campo de fútbol 11 de césped artificial,2,http://www.madrid.es/sites/v/index.jsp?vgnextchannel=bfa48ab43d6bb410VgnVCM100000171f5a0aRCRD&vgnextoid=cba58203c8485110VgnVCM1000000b205a0aRCRD,ANTONIO MAIRENA,CALLE,23,PUENTE DE VALLECAS,40.39173622231404,-3.638534214819895
Instalación Deportiva Municipal Básica Calanda,Pista de Chito,0,http://www.madrid.es/sites/v/index.jsp?vgnextchannel=bfa48ab43d6bb410VgnVCM100000171f5a0aRCRD&vgnextoid=d7132f9841a61110VgnVCM1000000b205a0aRCRD,CALANDA,CALLE,30,HORTALEZA,40.46246051111333,-3.641472895181452
Instalación Deportiva Municipal Básica Caleruega,1 Pista de baloncesto,0,http://www.madrid.es/sites/v/index.jsp?vgnextchannel=bfa48ab43d6bb410VgnVCM100000171f5a0aRCRD&vgnextoid=be549256c6bed210VgnVCM1000000b205a0aRCRD,CALERUEGA,CALLE,52,CIUDAD LINEAL,40.48107021761235,-3.671594589647619
Instalación Deportiva Municipal Básica Camino Viejo de Leganés,1 Pista polideportiva,0,http://www.madrid.es/sites/v/index.jsp?vgnextchannel=bfa48ab43d6bb410VgnVCM100000171f5a0aRCRD&vgnextoid=4c8cea3c8dd71110VgnVCM1000000b205a0aRCRD,CAMINO VIEJO DE LEGANES,CALLE,S/N,CARABANCHEL,40.38117601531834,-3.731343103155248
Instalación Deportiva Municipal Básica Campo Fútbol Puerta Bonita,1 Campo de Fútbol,0,http://www.madrid.es/sites/v/index.jsp?vgnextchannel=bfa48ab43d6bb410VgnVCM100000171f5a0aRCRD&vgnextoid=be23d10fd4f65110VgnVCM1000000b205a0aRCRD,GENERAL RICARDOS,CALLE,166,CARABANCHEL,40.3879590752267,-3.732889210629677
Instalación Deportiva Municipal Básica Campo de Fútbol San Martín de Porres,1 Campo de fútbol,0,http://www.madrid.es/sites/v/index.jsp?vgnextchannel=bfa48ab43d6bb410VgnVCM100000171f5a0aRCRD&vgnextoid=417aa1c3a9e61110VgnVCM1000000b205a0aRCRD,ERMITA DEL SANTO,PASEO,S/N,CARABANCHEL,40.39949108577098,-3.732825709268183
Instalación Deportiva Municipal Básica Campo de Fútbol Tierra,1 Campo de fútbol,0,http://www.madrid.es/sites/v/index.jsp?vgnextchannel=bfa48ab43d6bb410VgnVCM100000171f5a0aRCRD&vgnextoid=a4ba3fa5ace85110VgnVCM1000000b205a0aRCRD,DOCTOR GARCIA TAPIA,AVENIDA,113,MORATALAZ,40.41154005341027,-3.642828451015245
Instalación Deportiva Municipal Básica Campo de fútbol de la A. D. Orcasitas,1 Campo de fútbol 11 de césped artificial,2,http://www.madrid.es/sites/v/index.jsp?vgnextchannel=bfa48ab43d6bb410VgnVCM100000171f5a0aRCRD&vgnextoid=94d96bdaa0149710VgnVCM1000001d4a900aRCRD,RAFAELA YBARRA,AVENIDA,119,USERA,40.36720552010195,-3.71208812822708
Instalación Deportiva Municipal Básica Canal de Panamá,1 Pista de fútbol sala,0,http://www.madrid.es/sites/v/index.jsp?vgnextchannel=bfa48ab43d6bb410VgnVCM100000171f5a0aRCRD&vgnextoid=98bb6f91462a1110VgnVCM1000000b205a0aRCRD,CANAL DE PANAMA,CALLE,S/N,CIUDAD LINEAL,40.44098424268766,-3.6520112027455554
Instalación Deportiva Municipal Básica Canillas - Club Deportivo Canillas,Campo de fútbol 11 de césped artificialPista de fútbol sala de césped artificial,1,http://www.madrid.es/sites/v/index.jsp?vgnextchannel=bfa48ab43d6bb410VgnVCM100000171f5a0aRCRD&vgnextoid=250cfb7f34a61110VgnVCM1000000b205a0aRCRD,AGUSTIN DE ITURBIDE,CALLE,1,HORTALEZA,40.46854356477104,-3.6486680716819206
Instalación Deportiva Municipal Básica Carlos II,1 Pista de baloncesto1 Pista de fútbol sala,0,http://www.madrid.es/sites/v/index.jsp?vgnextchannel=bfa48ab43d6bb410VgnVCM100000171f5a0aRCRD&vgnextoid=225c77f0d8ae1110VgnVCM1000000b205a0aRCRD,CARLOS II,CALLE,4,SAN BLAS-CANILLEJAS,40.42766744656451,-3.6076270875712217
Instalación Deportiva Municipal Básica Carlos Solé,1 Pista de frontón corto 2 Pistas de pádel 2 Pistas de tenis,2,http://www.madrid.es/sites/v/index.jsp?vgnextchannel=bfa48ab43d6bb410VgnVCM100000171f5a0aRCRD&vgnextoid=75d200123edb2110VgnVCM1000000b205a0aRCRD,CARLOS SOLE,CALLE,19,PUENTE DE VALLECAS,40.39214336748665,-3.649301187158133
Instalación Deportiva Municipal Básica Carmen Amaya,1 Pista baloncesto1 Pista fúbol-sala,0,http://www.madrid.es/sites/v/index.jsp?vgnextchannel=bfa48ab43d6bb410VgnVCM100000171f5a0aRCRD&vgnextoid=50a72f68db606310VgnVCM1000000b205a0aRCRD,DOCTOR GARCIA TAPIA,AVENIDA,28-30,MORATALAZ,40.41206030334087,-3.651284078326445
Instalación Deportiva Municipal Básica Caronte,1 Pista polideportiva,0,http://www.madrid.es/sites/v/index.jsp?vgnextchannel=bfa48ab43d6bb410VgnVCM100000171f5a0aRCRD&vgnextoid=683881f05ba65110VgnVCM1000000b205a0aRCRD,CARONTE,CALLE,4,CARABANCHEL,40.396642453268775,-3.721647689712961
Instalación Deportiva Municipal Básica Carril del Conde,1 Pista de fútbol sala,0,http://www.madrid.es/sites/v/index.jsp?vgnextchannel=bfa48ab43d6bb410VgnVCM100000171f5a0aRCRD&vgnextoid=fb5cbab638551110VgnVCM1000000b205a0aRCRD,"CARRIL DEL CONDE C/V CALLE DEL PUERTO REAL, 7",CALLE,,HORTALEZA,40.45830944403495,-3.655141029725419
Instalación Deportiva Municipal Básica Carrión de los Condes,2 Pistas de petanca,0,http://www.madrid.es/sites/v/index.jsp?vgnextchannel=bfa48ab43d6bb410VgnVCM100000171f5a0aRCRD&vgnextoid=e31bfdaa18e61110VgnVCM1000000b205a0aRCRD,TEMPLARIOS,PLAZA,4,HORTALEZA,40.47430169221348,-3.6595649567170168
Instalación Deportiva Municipal Básica Casa Campo,1 Pista de baloncesto,0,http://www.madrid.es/sites/v/index.jsp?vgnextchannel=bfa48ab43d6bb410VgnVCM100000171f5a0aRCRD&vgnextoid=139cf80f8de5c210VgnVCM1000000b205a0aRCRD,CASA DE CAMPO,PARQUE,s/n,MONCLOA-ARAVACA,40.4184340515621,-3.736143042995308
Instalación Deportiva Municipal Básica Casa Campo I Lago,1 Campo de fútbol,0,http://www.madrid.es/sites/v/index.jsp?vgnextchannel=bfa48ab43d6bb410VgnVCM100000171f5a0aRCRD&vgnextoid=89a00e5f50e5c210VgnVCM1000000b205a0aRCRD,CASA DE CAMPO,PARQUE,s/n,MONCLOA-ARAVACA,40.41867020566187,-3.730157679235435
Instalación Deportiva Municipal Básica Casa Campo II Teleférico,1 Campo de fútbol,0,http://www.madrid.es/sites/v/index.jsp?vgnextchannel=bfa48ab43d6bb410VgnVCM100000171f5a0aRCRD&vgnextoid=492b2a3349e5c210VgnVCM1000000b205a0aRCRD,CASA DE CAMPO,PARQUE,s/n,MONCLOA-ARAVACA,40.42111772146607,-3.737716485663515
Instalación Deportiva Municipal Básica Casa Campo III,1 Campo de fútbol,0,http://www.madrid.es/sites/v/index.jsp?vgnextchannel=bfa48ab43d6bb410VgnVCM100000171f5a0aRCRD&vgnextoid=c5e42a3349e5c210VgnVCM1000000b205a0aRCRD,CASA CAMPO,PARQUE,S/N,MONCLOA-ARAVACA,40.42663911970955,-3.735065416489925
Instalación Deportiva Municipal Básica Casa Campo IV,1 Campo de fútbol1 Campo de fútbol 7,0,http://www.madrid.es/sites/v/index.jsp?vgnextchannel=bfa48ab43d6bb410VgnVCM100000171f5a0aRCRD&vgnextoid=4887e5021ce5c210VgnVCM1000000b205a0aRCRD,CASA CAMPO,PARQUE,S/N,MONCLOA-ARAVACA,40.43184675866799,-3.739236682144013
Instalación Deportiva Municipal Básica Casalarreina,Pista polideportiva,0,http://www.madrid.es/sites/v/index.jsp?vgnextchannel=bfa48ab43d6bb410VgnVCM100000171f5a0aRCRD&vgnextoid=3d1b04fbe3961110VgnVCM1000000b205a0aRCRD,CASALARREINA,CALLE,28,VICALVARO,40.40897549865364,-3.6140942577626016
Instalación Deportiva Municipal Básica Casino de la Reina,1 Pista Polideportiva1 Pista de Baloncesto,0,http://www.madrid.es/sites/v/index.jsp?vgnextchannel=bfa48ab43d6bb410VgnVCM100000171f5a0aRCRD&vgnextoid=6739309c9bc91110VgnVCM2000000c205a0aRCRD,CASINO,CALLE,3,CENTRO,40.40695673994099,-3.704292111506432
Instalación Deportiva Municipal Básica Castroserna,1 Campo de fútbol (de tierra) Tenis de mesa,0,http://www.madrid.es/sites/v/index.jsp?vgnextchannel=bfa48ab43d6bb410VgnVCM100000171f5a0aRCRD&vgnextoid=4ab5ec5543ea2110VgnVCM2000000c205a0aRCRD,CASTROSERNA,CALLE,2,LATINA,40.40251081513204,-3.749427401089634
Instalación Deportiva Municipal Básica Cazorla,1 Pista de baloncesto,2,http://www.madrid.es/sites/v/index.jsp?vgnextchannel=bfa48ab43d6bb410VgnVCM100000171f5a0aRCRD&vgnextoid=6fad7348de2c2110VgnVCM1000000b205a0aRCRD,IBROS,CALLE,3,PUENTE DE VALLECAS,40.3758356486892,-3.6659340772744127
Instalación Deportiva Municipal Básica Cementerio Civil,1 Pista de fútbol sala,0,http://www.madrid.es/sites/v/index.jsp?vgnextchannel=bfa48ab43d6bb410VgnVCM100000171f5a0aRCRD&vgnextoid=fc00dedbe1d91110VgnVCM1000000b205a0aRCRD,DAROCA,AVENIDA,101,CIUDAD LINEAL,40.42041280188907,-3.6332470504462986
Instalación Deportiva Municipal Básica Cerro Blanco,1 Pista de baloncesto1 Pista de balonmano2 Pistas de bolos y petanca,2,http://www.madrid.es/sites/v/index.jsp?vgnextchannel=bfa48ab43d6bb410VgnVCM100000171f5a0aRCRD&vgnextoid=1cb10d17980e1110VgnVCM1000000b205a0aRCRD,"ALBARDIN C/V CALLE CERRO BLANCO, 30",CALLE,7,USERA,40.37975674670092,-3.716284060235098
Instalación Deportiva Municipal Básica Cerro Cabezuelos,1 Campo de fútbol 11 de tierra,2,http://www.madrid.es/sites/v/index.jsp?vgnextchannel=bfa48ab43d6bb410VgnVCM100000171f5a0aRCRD&vgnextoid=a2690aec7b7b2110VgnVCM1000000b205a0aRCRD,VILLALOBOS,CALLE,46,PUENTE DE VALLECAS,40.379694900594856,-3.6521267878318
Instalación Deportiva Municipal Básica Cerro Negro,1 Pista de baloncesto. 2 Pistas de bolos y petanca. 1 Pista de patinaje Tenis de mesa,0,http://www.madrid.es/sites/v/index.jsp?vgnextchannel=bfa48ab43d6bb410VgnVCM100000171f5a0aRCRD&vgnextoid=965a3906b2f0b210VgnVCM2000000c205a0aRCRD,CERRO NEGRO,CALLE,5,RETIRO,40.396646655094365,-3.671603413540554
Instalación Deportiva Municipal Básica Circuito Natural Footing Retiro,1 Circuito de Footing,0,http://www.madrid.es/sites/v/index.jsp?vgnextchannel=bfa48ab43d6bb410VgnVCM100000171f5a0aRCRD&vgnextoid=a2fb7dff2c201110VgnVCM1000000b205a0aRCRD,EL RETIRO,PARQUE,,RETIRO,40.4152672609971,-3.688643512378128
Instalación Deportiva Municipal Básica Circuito de Footing Casa de Campo,"Circuito de footing con un recorrido de 2,5 Km.- Arranca desde el aparcamiento del Lago hasta el Pinar de las Siete Hermanas y vuelta por la antigua acequia hasta el punto de partida. No cruza ninguna vía de automóviles.- Contiene 14 estaciones distintas con aparatos para la realización de ejercicios.",0,http://www.madrid.es/sites/v/index.jsp?vgnextchannel=bfa48ab43d6bb410VgnVCM100000171f5a0aRCRD&vgnextoid=5f584f36ff81c010VgnVCM1000000b205a0aRCRD,CASA DE CAMPO,PARQUE,,MONCLOA-ARAVACA,40.42045376372811,-3.733041347187696
Instalación Deportiva Municipal Básica Ciudad Pegaso I,1 Pista polideportiva,0,http://www.madrid.es/sites/v/index.jsp?vgnextchannel=bfa48ab43d6bb410VgnVCM100000171f5a0aRCRD&vgnextoid=84865f45475e1110VgnVCM1000000b205a0aRCRD,UNO,CALLE,S/N,SAN BLAS-CANILLEJAS,40.44951110145051,-3.594391876070514
Instalación Deportiva Municipal Básica Ciudad Pegaso II,3 Pistas de Petanca,0,http://www.madrid.es/sites/v/index.jsp?vgnextchannel=bfa48ab43d6bb410VgnVCM100000171f5a0aRCRD&vgnextoid=9b161816485e1110VgnVCM1000000b205a0aRCRD,SEIS,CALLE,S/N,SAN BLAS-CANILLEJAS,40.448330002444166,-3.5945701505778493
Instalación Deportiva Municipal Básica Ciudad Pegaso III,1 Pista polideportiva,0,http://www.madrid.es/sites/v/index.jsp?vgnextchannel=bfa48ab43d6bb410VgnVCM100000171f5a0aRCRD&vgnextoid=296b65815aae1110VgnVCM1000000b205a0aRCRD,ONCE,CALLE,S/N,SAN BLAS-CANILLEJAS,40.44455842139296,-3.593947323119205
Instalación Deportiva Municipal Básica Ciudad de Los Ángeles,2 Pistas de baloncesto1 Pista de patinaje,0,http://www.madrid.es/sites/v/index.jsp?vgnextchannel=bfa48ab43d6bb410VgnVCM100000171f5a0aRCRD&vgnextoid=f346588fd3471110VgnVCM1000000b205a0aRCRD,ANOETA,CALLE,S/N,VILLAVERDE,40.35283994612291,-3.698205911976654
Instalación Deportiva Municipal Básica Clara del Rey,Pista polideportiva con marcajes de fútbol-sala.,2,http://www.madrid.es/sites/v/index.jsp?vgnextchannel=bfa48ab43d6bb410VgnVCM100000171f5a0aRCRD&vgnextoid=66bb7626aad81110VgnVCM1000000b205a0aRCRD,CLARA DEL REY,CALLE,61,CHAMARTIN,40.44656763308464,-3.668173275110258
Instalación Deportiva Municipal Básica Club de Petanca Esperanza de Canilllas,6 Pistas de bolos y petanca,1,http://www.madrid.es/sites/v/index.jsp?vgnextchannel=bfa48ab43d6bb410VgnVCM100000171f5a0aRCRD&vgnextoid=50be891a12165310VgnVCM2000000c205a0aRCRD,SILVANO,CALLE,63,HORTALEZA,40.45949540975727,-3.6427781663423575
Instalación Deportiva Municipal Básica Club de Petanca Peonias,3 Pistas de bolos y petanca,2,http://www.madrid.es/sites/v/index.jsp?vgnextchannel=bfa48ab43d6bb410VgnVCM100000171f5a0aRCRD&vgnextoid=47cd4c43e20de610VgnVCM2000001f4a900aRCRD,PEONIAS,CALLE,2,HORTALEZA,40.45064086472342,-3.617909238515176
Instalación Deportiva Municipal Básica Cocheras (Ciudad Lineal),1 Campo de fútbol,0,http://www.madrid.es/sites/v/index.jsp?vgnextchannel=bfa48ab43d6bb410VgnVCM100000171f5a0aRCRD&vgnextoid=0aca0c7f53bed210VgnVCM1000000b205a0aRCRD,SAN LAMBERTO,CALLE,s/n,CIUDAD LINEAL,40.42244010701552,-3.6494391609819576
Instalación Deportiva Municipal Básica Cocheras (Retiro),2 Pistas de baloncesto 2 Pistas de patinaje (bajo el puente de Doctor Esquerdo) Tenis de mesa,0,http://www.madrid.es/sites/v/index.jsp?vgnextchannel=bfa48ab43d6bb410VgnVCM100000171f5a0aRCRD&vgnextoid=4405ad5b81301110VgnVCM1000000b205a0aRCRD,COCHERAS,CALLE,1,RETIRO,40.40067337688741,-3.676298173141196
Instalación Deportiva Municipal Básica Colombia,1 Pista de patinaje,0,http://www.madrid.es/sites/v/index.jsp?vgnextchannel=bfa48ab43d6bb410VgnVCM100000171f5a0aRCRD&vgnextoid=af26de1d88402110VgnVCM1000000b205a0aRCRD,COLOMBIA,CALLE,59,CHAMARTIN,40.457759787152014,-3.669215880508611
Instalación Deportiva Municipal Básica Colonia Euskalduna,2 Pistas de fútbol sala.,0,http://www.madrid.es/sites/v/index.jsp?vgnextchannel=bfa48ab43d6bb410VgnVCM100000171f5a0aRCRD&vgnextoid=4c137874b8f61110VgnVCM1000000b205a0aRCRD,HERMANDAD DE DONANTES DE SANGRE,CALLE,7,VILLAVERDE,40.35456935043359,-3.699754645665144
Instalación Deportiva Municipal Básica Colonia Marconi,2 Pistas de tenis4 Frontones cortos1 Pista polideportiva1 Pista de patinaje,0,http://www.madrid.es/sites/v/index.jsp?vgnextchannel=bfa48ab43d6bb410VgnVCM100000171f5a0aRCRD&vgnextoid=2b538004f7471110VgnVCM1000000b205a0aRCRD,MARCONI,AVENIDA,s/n,VILLAVERDE,40.33393325295466,-3.6931253996834856
Instalación Deportiva Municipal Básica Colonia San Cristóbal de Los Ángeles,2 Pistas Polideportivas.,0,http://www.madrid.es/sites/v/index.jsp?vgnextchannel=bfa48ab43d6bb410VgnVCM100000171f5a0aRCRD&vgnextoid=adab8e71e6e61110VgnVCM1000000b205a0aRCRD,ROCAFORT,CALLE,s/n,VILLAVERDE,40.34108883895775,-3.6897253636919576
Instalación Deportiva Municipal Básica Colonia Sierra del Valle,1 Pista de patinaje,0,http://www.madrid.es/sites/v/index.jsp?vgnextchannel=bfa48ab43d6bb410VgnVCM100000171f5a0aRCRD&vgnextoid=d1370aec7b7b2110VgnVCM1000000b205a0aRCRD,PAYASO FOFO,CALLE,9,PUENTE DE VALLECAS,40.39053322411197,-3.660146864620817
Instalación Deportiva Municipal Básica Colonia los Taxistas,2 Pistas de baloncesto 2 Pistas de fútbol sala 1 Rocódromo 1 Pista de tenis de mesa,2,http://www.madrid.es/sites/v/index.jsp?vgnextchannel=bfa48ab43d6bb410VgnVCM100000171f5a0aRCRD&vgnextoid=21dbde6b48db2110VgnVCM1000000b205a0aRCRD,SIERRA DE CUERDA LARGA,CALLE,41,PUENTE DE VALLECAS,40.3996321152037,-3.656701126130349
Instalación Deportiva Municipal Básica Concejal Gabriel Fernández (Parque Cuña Verde),1 Campo de fútbol 2 Campos de fútbol 7 (césped artificial) 2 Pistas de polideportivas (baloncesto y ecuavoley) Tenis de mesa,0,http://www.madrid.es/sites/v/index.jsp?vgnextchannel=bfa48ab43d6bb410VgnVCM100000171f5a0aRCRD&vgnextoid=df6fb1d084ea2110VgnVCM2000000c205a0aRCRD,CUART DE POBLET,CALLE,6,LATINA,40.39717971610274,-3.75185460918738
Instalación Deportiva Municipal Básica Conde Duque,1 Pista de fútbol sala 1 Pista de bolos y petanca 1 Pista de chito,0,http://www.madrid.es/sites/v/index.jsp?vgnextchannel=bfa48ab43d6bb410VgnVCM100000171f5a0aRCRD&vgnextoid=42fed03df9c91110VgnVCM2000000c205a0aRCRD,SANTA CRUZ DE MARCENADO,CALLE,21,CENTRO,40.42890457185098,-3.710390334447589
Instalación Deportiva Municipal Básica Condesa de Venadito,1 Pista de fútbol sala 1 Pista de baloncesto 1 Pista BMX Flatland 1 Pista Skate,0,http://www.madrid.es/sites/v/index.jsp?vgnextchannel=bfa48ab43d6bb410VgnVCM100000171f5a0aRCRD&vgnextoid=000ebea9e0d91110VgnVCM1000000b205a0aRCRD,CONDESA DE VENADITO,CALLE,7,CIUDAD LINEAL,40.44505998039654,-3.652958563116748
Instalación Deportiva Municipal Básica Cordel de Pavones,Frontón2 Pistas de baloncesto2 Pistas polideportivasMinibasket,0,http://www.madrid.es/sites/v/index.jsp?vgnextchannel=bfa48ab43d6bb410VgnVCM100000171f5a0aRCRD&vgnextoid=2eace1fffb1f5310VgnVCM2000000c205a0aRCRD,CORDEL DE PAVONES,CALLE,11,VICALVARO,40.39990644210208,-3.618584055837224
Instalación Deportiva Municipal Básica Cordel de Pavones I,1 Pista de tenis 4 Pistas de pádel 3 Tenis de mesa,0,http://www.madrid.es/sites/v/index.jsp?vgnextchannel=bfa48ab43d6bb410VgnVCM100000171f5a0aRCRD&vgnextoid=b541c4c4222f5310VgnVCM2000000c205a0aRCRD,CORDEL DE PAVONES,CALLE,9,VICALVARO,40.40930182229157,-3.608605091516184
Instalación Deportiva Municipal Básica Corregidor Diego de Valderrábano,2 Pistas de baloncestoPista de fútbol sala.,0,http://www.madrid.es/sites/v/index.jsp?vgnextchannel=bfa48ab43d6bb410VgnVCM100000171f5a0aRCRD&vgnextoid=4f796e6292bdd210VgnVCM1000000b205a0aRCRD,CORREGIDOR DIEGO DE VALDERRABANO,CALLE,24,MORATALAZ,40.40940474947577,-3.6588602502598873
Instalación Deportiva Municipal Básica Cuevas de Almanzora,Pista de mini basket Pista polideportiva Zona de calistenia,2,http://www.madrid.es/sites/v/index.jsp?vgnextchannel=bfa48ab43d6bb410VgnVCM100000171f5a0aRCRD&vgnextoid=467ce76a0948a210VgnVCM2000000c205a0aRCRD,MOJACAR,CALLE,2,HORTALEZA,40.47940888739177,-3.658140197005035
Instalación Deportiva Municipal Básica Cuña Verde (Villaamil),2 Pistas de   baloncesto  2 Pistas polideportivas 3 Tenis de mesa,2,http://www.madrid.es/sites/v/index.jsp?vgnextchannel=bfa48ab43d6bb410VgnVCM100000171f5a0aRCRD&vgnextoid=cbf0dfd39c794110VgnVCM1000000b205a0aRCRD,VILLAAMIL,CALLE,12,TETUAN,40.45748732384512,-3.705316749030452
Instalación Deportiva Municipal Básica Cárcavas Oeste I,1 Pista de baloncesto.,2,http://www.madrid.es/sites/v/index.jsp?vgnextchannel=bfa48ab43d6bb410VgnVCM100000171f5a0aRCRD&vgnextoid=88018a43c67c5110VgnVCM1000000b205a0aRCRD,CARMEN RICO GODOY,CALLE,40,HORTALEZA,40.48013725057699,-3.635430388203537
Instalación Deportiva Municipal Básica Cárcavas Oeste II,1 Pista polideportiva,2,http://www.madrid.es/sites/v/index.jsp?vgnextchannel=bfa48ab43d6bb410VgnVCM100000171f5a0aRCRD&vgnextoid=c65b0f74158c5310VgnVCM1000000b205a0aRCRD,SAN ANDRES DE RABANEDO,CALLE,1,HORTALEZA,40.48087402947953,-3.634569927305306
Instalación Deportiva Municipal Básica Daniel Casero Gómez (antiguo Sangenjo),Pista de baloncesto.,0,http://www.madrid.es/sites/v/index.jsp?vgnextchannel=bfa48ab43d6bb410VgnVCM100000171f5a0aRCRD&vgnextoid=76e6e08340d35310VgnVCM2000000c205a0aRCRD,SANGENJO,CALLE,42,FUENCARRAL-EL PARDO,40.48884298191689,-3.698554678566628
Instalación Deportiva Municipal Básica David González Rubio - Pradolongo,2 Campos de fútbol 11 de césped artificial  2 Pistas polideportivas  1 Zona de calistenia,2,http://www.madrid.es/sites/v/index.jsp?vgnextchannel=bfa48ab43d6bb410VgnVCM100000171f5a0aRCRD&vgnextoid=948631437ffd1110VgnVCM1000000b205a0aRCRD,DOCTOR TOLOSA LATOUR,CALLE,14,USERA,40.37680339682996,-3.701886974455944
Instalación Deportiva Municipal Básica Dehesa del Príncipe,1 Pista de fútbol sala2 Pistas de petanca,0,http://www.madrid.es/sites/v/index.jsp?vgnextchannel=bfa48ab43d6bb410VgnVCM100000171f5a0aRCRD&vgnextoid=f06fd8cbe5d22110VgnVCM1000000b205a0aRCRD,ARQUEROS,AVENIDA,29,LATINA,40.37918609042024,-3.795324391950351
Instalación Deportiva Municipal Básica Diana,2 Pistas de baloncesto1 Pista de fútbol - sala,0,http://www.madrid.es/sites/v/index.jsp?vgnextchannel=bfa48ab43d6bb410VgnVCM100000171f5a0aRCRD&vgnextoid=c232ee4851bd1110VgnVCM1000000b205a0aRCRD,GALEON,CALLE,25,BARAJAS,40.45721870340052,-3.5845999549053547
Instalación Deportiva Municipal Básica Doctor Cirajas,2 Pistas de baloncesto.,0,http://www.madrid.es/sites/v/index.jsp?vgnextchannel=bfa48ab43d6bb410VgnVCM100000171f5a0aRCRD&vgnextoid=7eb59c02f6d91110VgnVCM1000000b205a0aRCRD,DOCTOR CIRAJAS,CALLE,3,CIUDAD LINEAL,40.435515856536526,-3.6374563613179753
Instalación Deportiva Municipal Básica Doctor Vallejo-Nájera,1 Pista de Baloncesto,0,http://www.madrid.es/sites/v/index.jsp?vgnextchannel=bfa48ab43d6bb410VgnVCM100000171f5a0aRCRD&vgnextoid=c9f1e55ea6471110VgnVCM1000000b205a0aRCRD,GASOMETRO,CALLE,32,ARGANZUELA,40.40233909331515,-3.7080621422210975
Instalación Deportiva Municipal Básica Drácena,Pista de hockey sobre patines.,2,http://www.madrid.es/sites/v/index.jsp?vgnextchannel=bfa48ab43d6bb410VgnVCM100000171f5a0aRCRD&vgnextoid=65c95f362cd81110VgnVCM1000000b205a0aRCRD,DRACENA,CALLE,42,CHAMARTIN,40.46425775938073,-3.668784966011135
Instalación Deportiva Municipal Básica Duque de Sevilla,1 Pista de patinaje.,0,http://www.madrid.es/sites/v/index.jsp?vgnextchannel=bfa48ab43d6bb410VgnVCM100000171f5a0aRCRD&vgnextoid=bfd8516239129210VgnVCM1000000b205a0aRCRD,DUQUE DE SEVILLA,CALLE,1,CHAMARTIN,40.44166603700321,-3.679114249778397
Instalación Deportiva Municipal Básica Echegaray,2 Pistas de baloncestoPista de fútbol sala,0,http://www.madrid.es/sites/v/index.jsp?vgnextchannel=bfa48ab43d6bb410VgnVCM100000171f5a0aRCRD&vgnextoid=1986f30a37391110VgnVCM2000000c205a0aRCRD,ENCOMIENDA DE PALACIOS,CALLE,324,MORATALAZ,40.39720166030288,-3.63557478412475
Instalación Deportiva Municipal Básica El Bosco,1 Pista de fútbol sala,2,http://www.madrid.es/sites/v/index.jsp?vgnextchannel=bfa48ab43d6bb410VgnVCM100000171f5a0aRCRD&vgnextoid=39a4ed32dd2c2110VgnVCM1000000b205a0aRCRD,EL BOSCO,CALLE,14,PUENTE DE VALLECAS,40.40148296368549,-3.651406031292048
Instalación Deportiva Municipal Básica El Bosque,1 Pista de fútbol sala,2,http://www.madrid.es/sites/v/index.jsp?vgnextchannel=bfa48ab43d6bb410VgnVCM100000171f5a0aRCRD&vgnextoid=fe125696ed551110VgnVCM1000000b205a0aRCRD,GOLMAYO,PLAZA,17,HORTALEZA,40.46714774021119,-3.6618563692082393
Instalación Deportiva Municipal Básica El Capricho I,1 Campo de fútbol (césped artificial)  1 Campo de fútbol 7,0,http://www.madrid.es/sites/v/index.jsp?vgnextchannel=bfa48ab43d6bb410VgnVCM100000171f5a0aRCRD&vgnextoid=57308be7ed48a210VgnVCM2000000c205a0aRCRD,ALAMEDA DE OSUNA,PASEO,48,BARAJAS,40.45430519267116,-3.599375619694702
Instalación Deportiva Municipal Básica El Capricho II,Pista de baloncesto Pista polideportiva (con marcajes de fútbol sala y balonmano Pista de voleibol,0,http://www.madrid.es/sites/v/index.jsp?vgnextchannel=bfa48ab43d6bb410VgnVCM100000171f5a0aRCRD&vgnextoid=e154854e492da510VgnVCM2000001f4a900aRCRD,ALAMEDA DE OSUNA,PASEO,46,BARAJAS,40.45424612279451,-3.600342165562562
Instalación Deportiva Municipal Básica El Cruce,2 Pistas polideportivas,0,http://www.madrid.es/sites/v/index.jsp?vgnextchannel=bfa48ab43d6bb410VgnVCM100000171f5a0aRCRD&vgnextoid=6d84cf0980a61110VgnVCM1000000b205a0aRCRD,SANTIAGO AMON,CALLE,6y8,VILLAVERDE,40.34894700358768,-3.693879611293337
Instalación Deportiva Municipal Básica El Espinillo I,1 Pista de patinaje.,0,http://www.madrid.es/sites/v/index.jsp?vgnextchannel=bfa48ab43d6bb410VgnVCM100000171f5a0aRCRD&vgnextoid=4b0169ef89471110VgnVCM1000000b205a0aRCRD,TERTULIA,CALLE,7,VILLAVERDE,40.361575517254266,-3.6927606788274527
Instalación Deportiva Municipal Básica El Espinillo III,1 Pista de fútbol sala,0,http://www.madrid.es/sites/v/index.jsp?vgnextchannel=bfa48ab43d6bb410VgnVCM100000171f5a0aRCRD&vgnextoid=c81844c95c9b8210VgnVCM2000000c205a0aRCRD,UNANIMIDAD,CALLE,s/n,VILLAVERDE,40.36157241219842,-3.693278850156952
Instalación Deportiva Municipal Básica El Parque,1 Pista polideportiva,0,http://www.madrid.es/sites/v/index.jsp?vgnextchannel=bfa48ab43d6bb410VgnVCM100000171f5a0aRCRD&vgnextoid=6de7849491df0110VgnVCM1000000b205a0aRCRD,COMANDANTE FORTEA,PASEO,25,MONCLOA-ARAVACA,40.42589471749026,-3.731697578357141
Instalación Deportiva Municipal Básica El Pedernoso - Parque de Villa Rosa - Paco Caño,2 Pistas de baloncesto 2 Tenis de mesa,0,http://www.madrid.es/sites/v/index.jsp?vgnextchannel=bfa48ab43d6bb410VgnVCM100000171f5a0aRCRD&vgnextoid=5ce8dec5c4961110VgnVCM1000000b205a0aRCRD,PEDROÑERAS (cubierta P.A.R.),CALLE,42,HORTALEZA,40.46725432234968,-3.6309383657037775
Instalación Deportiva Municipal Básica El Torero,1 Pista de baloncesto 1 Pista de patinaje 1 Área de calistenia,2,http://www.madrid.es/sites/v/index.jsp?vgnextchannel=bfa48ab43d6bb410VgnVCM100000171f5a0aRCRD&vgnextoid=13562784040e1110VgnVCM1000000b205a0aRCRD,TORERO C/V CALLE ANTONIO LÓPEZ,CALLE,10,USERA,40.39227761286618,-3.706318951771014
Instalación Deportiva Municipal Básica El Vandel,1 Campo de fútbol 7 tierra1 Pista de baloncesto1 Pista de fútbol sala,0,http://www.madrid.es/sites/v/index.jsp?vgnextchannel=bfa48ab43d6bb410VgnVCM100000171f5a0aRCRD&vgnextoid=18feabc170891110VgnVCM2000000c205a0aRCRD,FLORENCIO CANO CRISTOBAL,CALLE,9,MORATALAZ,40.41031893017073,-3.632280273004103
Instalación Deportiva Municipal Básica El Yesero,1 Pista polideportiva,0,http://www.madrid.es/sites/v/index.jsp?vgnextchannel=bfa48ab43d6bb410VgnVCM100000171f5a0aRCRD&vgnextoid=274995356cd96210VgnVCM2000000c205a0aRCRD,EL YESERO,CALLE,1,PUENTE DE VALLECAS,40.38140237449108,-3.6298348671059406
Instalación Deportiva Municipal Básica Electra,1 Pista de baloncesto 1 Pista polideportiva 2 Pistas de chito 1 Tenis de mesa,0,http://www.madrid.es/sites/v/index.jsp?vgnextchannel=bfa48ab43d6bb410VgnVCM100000171f5a0aRCRD&vgnextoid=200b97fcc9ae1110VgnVCM1000000b205a0aRCRD,CRONOS,CALLE,65,SAN BLAS-CANILLEJAS,40.44127421398117,-3.6189277132249833
Instalación Deportiva Municipal Básica Enrique Tierno Galván,Circuito de Footing,0,http://www.madrid.es/sites/v/index.jsp?vgnextchannel=bfa48ab43d6bb410VgnVCM100000171f5a0aRCRD&vgnextoid=b138d840e4623310VgnVCM2000000c205a0aRCRD,ENRIQUE TIERNO GALVAN,PARQUE,,DISTRITO,40.39487669248672,-3.686126235234665
Instalación Deportiva Municipal Básica Eros,1 Pista de Baloncesto,0,http://www.madrid.es/sites/v/index.jsp?vgnextchannel=bfa48ab43d6bb410VgnVCM100000171f5a0aRCRD&vgnextoid=bcceaba3b9194110VgnVCM1000000b205a0aRCRD,EROS,CALLE,6,ARGANZUELA,40.39352590492843,-3.6801309337036407
Instalación Deportiva Municipal Básica Esfinge,1 Pista de baloncesto1 Pista de fútbol sala14 Pistas de petanca8 Pistas de chito,0,http://www.madrid.es/sites/v/index.jsp?vgnextchannel=bfa48ab43d6bb410VgnVCM100000171f5a0aRCRD&vgnextoid=0e23950eb4ae1110VgnVCM1000000b205a0aRCRD,ESFINGE,CALLE,60,SAN BLAS-CANILLEJAS,40.44229135833031,-3.608914308760063
Instalación Deportiva Municipal Básica Esperanza I - Agrupación Deportiva Esperanza,1 Campo de fútbol 11 (césped artificial con 2 marcajes de F7.1 Pista de fútbol sala  (césped artificial).,2,http://www.madrid.es/sites/v/index.jsp?vgnextchannel=bfa48ab43d6bb410VgnVCM100000171f5a0aRCRD&vgnextoid=414fdc7deb551110VgnVCM1000000b205a0aRCRD,SILVANO,CALLE,65,HORTALEZA,40.45993986921884,-3.642319354553547
Instalación Deportiva Municipal Básica Esperanza II,1 Pista polideportiva,1,http://www.madrid.es/sites/v/index.jsp?vgnextchannel=bfa48ab43d6bb410VgnVCM100000171f5a0aRCRD&vgnextoid=b665f7513a629210VgnVCM1000000b205a0aRCRD,SILVANO,CALLE,61,HORTALEZA,40.45908220260012,-3.643098932325283
Instalación Deportiva Municipal Básica Estanque de las Tormentas,1 Campo de fútbol 7.2 Pistas de fútbol sala.,0,http://www.madrid.es/sites/v/index.jsp?vgnextchannel=bfa48ab43d6bb410VgnVCM100000171f5a0aRCRD&vgnextoid=e33d50aa44301110VgnVCM1000000b205a0aRCRD,ARROYO DE POZUELO,CALLE,S/N,MONCLOA-ARAVACA,40.45211512813871,-3.78329373903864
Instalación Deportiva Municipal Básica Estefanita,1 Pista de patinaje.,0,http://www.madrid.es/sites/v/index.jsp?vgnextchannel=bfa48ab43d6bb410VgnVCM100000171f5a0aRCRD&vgnextoid=cc6a9ca899ab8210VgnVCM2000000c205a0aRCRD,ESTEFANITA,CALLE,7,VILLAVERDE,40.345660999492566,-3.675218553605332
Instalación Deportiva Municipal Básica Estíbaliz,1 Frontón corto,2,http://www.madrid.es/sites/v/index.jsp?vgnextchannel=bfa48ab43d6bb410VgnVCM100000171f5a0aRCRD&vgnextoid=7faee49123f61110VgnVCM1000000b205a0aRCRD,ESTIBALIZ,CALLE,30,HORTALEZA,40.469514561623285,-3.6490195041524114
Instalación Deportiva Municipal Básica Euterpe,1 Campo de Fútbol (césped artificial),0,http://www.madrid.es/sites/v/index.jsp?vgnextchannel=bfa48ab43d6bb410VgnVCM100000171f5a0aRCRD&vgnextoid=b5e475944bae1110VgnVCM1000000b205a0aRCRD,EUTERPE,CALLE,1,SAN BLAS-CANILLEJAS,40.44749880003797,-3.5915203945028886
Instalación Deportiva Municipal Básica Eva Duarte,2 Pistas de bolos y petanca 1 Pista de chito 2 Pistas de pádel 3 Pistas de polideportivas 2 Tenis de mesa,1,http://www.madrid.es/sites/v/index.jsp?vgnextchannel=bfa48ab43d6bb410VgnVCM100000171f5a0aRCRD&vgnextoid=015e0a47f441f010VgnVCM2000000c205a0aRCRD,DOCTOR GOMEZ ULLA,CALLE,9,SALAMANCA,40.42997423940213,-3.667961859746943
Instalación Deportiva Municipal Básica Evangelios-Almendrales,1 Pista polideportiva,0,http://www.madrid.es/sites/v/index.jsp?vgnextchannel=bfa48ab43d6bb410VgnVCM100000171f5a0aRCRD&vgnextoid=362bfcab645e1110VgnVCM1000000b205a0aRCRD,EVANGELIOS,CALLE,4,USERA,40.38325838287727,-3.70058158190502
Instalación Deportiva Municipal Básica Fermín Caballero,6 Pistas de petanca2 Pistas de chito1 Pista de Patinaje,0,http://www.madrid.es/sites/v/index.jsp?vgnextchannel=bfa48ab43d6bb410VgnVCM100000171f5a0aRCRD&vgnextoid=d7fc3b3737d35310VgnVCM2000000c205a0aRCRD,FERMIN CABALLERO,CALLE,88,FUENCARRAL-EL PARDO,40.47935162025493,-3.719158405265364
Instalación Deportiva Municipal Básica Francisco Laguna,1 Pista de baloncesto 2 Pistas de fútbol sala 1 Pista de tenis de mesa,0,http://www.madrid.es/sites/v/index.jsp?vgnextchannel=bfa48ab43d6bb410VgnVCM100000171f5a0aRCRD&vgnextoid=8a5ec69590db2110VgnVCM1000000b205a0aRCRD,FRANCISCO LAGUNA,CALLE,26,PUENTE DE VALLECAS,40.39051190105737,-3.669975407440883
Instalación Deportiva Municipal Básica Francisco de Goya (antigua Mozart),1 Campo de fútbol 7,0,http://www.madrid.es/sites/v/index.jsp?vgnextchannel=bfa48ab43d6bb410VgnVCM100000171f5a0aRCRD&vgnextoid=3416f80f8de5c210VgnVCM1000000b205a0aRCRD,MOZART,INST. DEPORTIVA BASICA,,DISTRITO,40.42538917827494,-3.7244983193890495
Instalación Deportiva Municipal Básica Frontón Orcasitas,1 Pista de frontón corto,2,http://www.madrid.es/sites/v/index.jsp?vgnextchannel=bfa48ab43d6bb410VgnVCM100000171f5a0aRCRD&vgnextoid=e4e92784040e1110VgnVCM1000000b205a0aRCRD,RAFAELA YBARRA,AVENIDA,103,USERA,40.37064655641207,-3.712229879684724
Instalación Deportiva Municipal Básica Frontón Polideportivo San Fermín,1 Frontón corto,2,http://www.madrid.es/sites/v/index.jsp?vgnextchannel=bfa48ab43d6bb410VgnVCM100000171f5a0aRCRD&vgnextoid=bf3908570f39d210VgnVCM2000000c205a0aRCRD,SAN MAXIMO,CALLE,10,USERA,40.376095950252086,-3.692932350392072
Instalación Deportiva Municipal Básica Frontón San Fermín,1 Pista de frontón corto,0,http://www.madrid.es/sites/v/index.jsp?vgnextchannel=bfa48ab43d6bb410VgnVCM100000171f5a0aRCRD&vgnextoid=bd6a8d498a5e1110VgnVCM1000000b205a0aRCRD,DE PERALES,CAMINO,136,USERA,40.36990586456809,-3.6872392651660495
Instalación Deportiva Municipal Básica Frontón Tudelillas,1 Pista de frontón corto,2,http://www.madrid.es/sites/v/index.jsp?vgnextchannel=bfa48ab43d6bb410VgnVCM100000171f5a0aRCRD&vgnextoid=86121b40e9891110VgnVCM2000000c205a0aRCRD,PABLO IGLESIAS,AVENIDA,62,TETUAN,40.451690390542296,-3.711021047869016
Instalación Deportiva Municipal Básica Frontón Zofio (antiguo Zofío II),1 Pista de frontón corto,2,http://www.madrid.es/sites/v/index.jsp?vgnextchannel=bfa48ab43d6bb410VgnVCM100000171f5a0aRCRD&vgnextoid=f4744bb2984e1110VgnVCM1000000b205a0aRCRD,RICARDO BELTRAN Y ROZPIDE,CALLE,16,USERA,40.37992590963709,-3.7180064038885896
Instalación Deportiva Municipal Básica Fuente Espina,Minipista de patinaje.,2,http://www.madrid.es/sites/v/index.jsp?vgnextchannel=bfa48ab43d6bb410VgnVCM100000171f5a0aRCRD&vgnextoid=1cf9f533a3468710VgnVCM1000001d4a900aRCRD,FUENTESPINA,CALLE,29,VILLA DE VALLECAS,40.379273217545474,-3.606412694549229
Instalación Deportiva Municipal Básica Fuente de Lima,1 Pista de Baloncesto,0,http://www.madrid.es/sites/v/index.jsp?vgnextchannel=bfa48ab43d6bb410VgnVCM100000171f5a0aRCRD&vgnextoid=4756f9a1382b2110VgnVCM1000000b205a0aRCRD,FUENTE DE LIMA,CALLE,24,LATINA,40.3825571125298,-3.781874842527356
Instalación Deportiva Municipal Básica Fuerte de Navidad,1 Pista de baloncesto,0,http://www.madrid.es/sites/v/index.jsp?vgnextchannel=bfa48ab43d6bb410VgnVCM100000171f5a0aRCRD&vgnextoid=70935ad152322110VgnVCM1000000b205a0aRCRD,FUERTE DE NAVIDAD,CALLE,,LATINA,40.38109378379431,-3.7649408263985062
Instalación Deportiva Municipal Básica Félix Rodríguez de la Fuente,1 Pista de fútbol sala,0,http://www.madrid.es/sites/v/index.jsp?vgnextchannel=bfa48ab43d6bb410VgnVCM100000171f5a0aRCRD&vgnextoid=94fdf76721491110VgnVCM2000000c205a0aRCRD,FELIX RODRIGUEZ DE LA FUENTE,CALLE,3,MORATALAZ,40.41468322986084,-3.659006026996469
Instalación Deportiva Municipal Básica Galeón,2 Pistas de baloncesto,0,http://www.madrid.es/sites/v/index.jsp?vgnextchannel=bfa48ab43d6bb410VgnVCM100000171f5a0aRCRD&vgnextoid=7aea0d17980e1110VgnVCM1000000b205a0aRCRD,GALEON,CALLE,3,BARAJAS,40.45591483433643,-3.585897770294804
Instalación Deportiva Municipal Básica Garrovillas,1 Pista de patinaje3 Pistas de petanca1 Pista de chito,0,http://www.madrid.es/sites/v/index.jsp?vgnextchannel=bfa48ab43d6bb410VgnVCM100000171f5a0aRCRD&vgnextoid=74cc19b4c3ea2110VgnVCM2000000c205a0aRCRD,GARROVILLAS,PLAZA,S/N,LATINA,40.38011667026133,-3.7790546404419656
Instalación Deportiva Municipal Básica General Millán Astray,1 Pista polideportiva,0,http://www.madrid.es/sites/v/index.jsp?vgnextchannel=bfa48ab43d6bb410VgnVCM100000171f5a0aRCRD&vgnextoid=0ea55ca87e2b2110VgnVCM1000000b205a0aRCRD,GENERAL MILLAN ASTRAY,CALLE,4,LATINA,40.37937988549198,-3.767909548811197
Instalación Deportiva Municipal Básica Glorieta Avenida San Luis,1 pista polideportiva,1,http://www.madrid.es/sites/v/index.jsp?vgnextchannel=bfa48ab43d6bb410VgnVCM100000171f5a0aRCRD&vgnextoid=a666553e30f61110VgnVCM1000000b205a0aRCRD,Añastro,CALLE,78,CIUDAD LINEAL,40.4671739676516,-3.6645674105696378
Instalación Deportiva Municipal Básica Glorieta de Segovia,1 Tenis de mesa,0,http://www.madrid.es/sites/v/index.jsp?vgnextchannel=bfa48ab43d6bb410VgnVCM100000171f5a0aRCRD&vgnextoid=eff43e641a099610VgnVCM1000001d4a900aRCRD,Ciudad de Plasencia,PASEO,,CENTRO,40.41246022343046,-3.714538784977571
Instalación Deportiva Municipal Básica Gran Vía de Hortaleza,1 Pista de patinaje y pista de calva,1,http://www.madrid.es/sites/v/index.jsp?vgnextchannel=bfa48ab43d6bb410VgnVCM100000171f5a0aRCRD&vgnextoid=4888d5397f9a5310VgnVCM2000000c205a0aRCRD,GRAN VIA DE HORTALEZA,AVENIDA,1,HORTALEZA,40.4647876018932,-3.6596724032712897
Instalación Deportiva Municipal Básica Guadalajara,1 Campo de fútbol (césped artificial)2 Campos de fútbol 7 (césped artificial),0,http://www.madrid.es/sites/v/index.jsp?vgnextchannel=bfa48ab43d6bb410VgnVCM100000171f5a0aRCRD&vgnextoid=8add2414d35e1110VgnVCM1000000b205a0aRCRD,GUADALAJARA,AVENIDA,S/N,SAN BLAS-CANILLEJAS,40.42048481589473,-3.618277425225656
Instalación Deportiva Municipal Básica Hermanos Trueba,1 Pista de fútbol sala2 Pistas de baloncesto1 Pista de voleibol,0,http://www.madrid.es/sites/v/index.jsp?vgnextchannel=bfa48ab43d6bb410VgnVCM100000171f5a0aRCRD&vgnextoid=eba13c5ea1db2110VgnVCM1000000b205a0aRCRD,HERMANOS TRUEBA,CALLE,30,PUENTE DE VALLECAS,40.38569029812835,-3.662458124992885
Instalación Deportiva Municipal Básica Hogar del Ferroviario,1 Campo de fútbol 7,0,http://www.madrid.es/sites/v/index.jsp?vgnextchannel=bfa48ab43d6bb410VgnVCM100000171f5a0aRCRD&vgnextoid=4bed787f05d91110VgnVCM2000000c205a0aRCRD,MEDITERRANEO,AVENIDA,S/N,MORATALAZ,40.40695911649336,-3.6611698838232103
Instalación Deportiva Municipal Básica Hornero,1 Pista polideportiva,0,http://www.madrid.es/sites/v/index.jsp?vgnextchannel=bfa48ab43d6bb410VgnVCM100000171f5a0aRCRD&vgnextoid=3000c904fba65110VgnVCM1000000b205a0aRCRD,HORNERO,CALLE,1,CARABANCHEL,40.38821661890276,-3.72057984361246
Instalación Deportiva Municipal Básica Huerta de la Salud,1 Pista de baloncesto,0,http://www.madrid.es/sites/v/index.jsp?vgnextchannel=bfa48ab43d6bb410VgnVCM100000171f5a0aRCRD&vgnextoid=dcd3ced208a51110VgnVCM1000000b205a0aRCRD,ALCOBENDAS,CALLE,3,HORTALEZA,40.47505435038131,-3.642315547728054
Instalación Deportiva Municipal Básica Illescas,1 Pista de petanca,0,http://www.madrid.es/sites/v/index.jsp?vgnextchannel=bfa48ab43d6bb410VgnVCM100000171f5a0aRCRD&vgnextoid=bcd8f1723a784110VgnVCM1000000b205a0aRCRD,ILLESCAS,CALLE,,LATINA,40.39727663517988,-3.7659134453115457
Instalación Deportiva Municipal Básica Imagen,2 Pistas de baloncesto,0,http://www.madrid.es/sites/v/index.jsp?vgnextchannel=bfa48ab43d6bb410VgnVCM100000171f5a0aRCRD&vgnextoid=ea338ad3672c2110VgnVCM1000000b205a0aRCRD,IMAGEN,CALLE,23,PUENTE DE VALLECAS,40.38336275152153,-3.667713277656222
Instalación Deportiva Municipal Básica Isabel Patacón,1 Pista polideportiva,0,http://www.madrid.es/sites/v/index.jsp?vgnextchannel=bfa48ab43d6bb410VgnVCM100000171f5a0aRCRD&vgnextoid=3541ddee16b41110VgnVCM1000000b205a0aRCRD,ISABEL PATACON,CALLE,S/N,CARABANCHEL,40.3703691110204,-3.747622431727254
Instalación Deportiva Municipal Básica Isla de Tabarca,Campo de fútbol (césped artificial).  Pista de fútbol 11 (césped artificial).  Pista de baloncesto. 3 pistas de baloncesto 3x3.,0,http://www.madrid.es/sites/v/index.jsp?vgnextchannel=bfa48ab43d6bb410VgnVCM100000171f5a0aRCRD&vgnextoid=1b1898d6f7291110VgnVCM2000000c205a0aRCRD,SANTIAGO DE COMPOSTELA,CALLE,104,FUENCARRAL-EL PARDO,40.47680954600072,-3.720853707202184
Instalación Deportiva Municipal Básica Iván de Vargas,Superficie:  800 m2 Equipamientos: 1 Pista polideportiva,0,http://www.madrid.es/sites/v/index.jsp?vgnextchannel=bfa48ab43d6bb410VgnVCM100000171f5a0aRCRD&vgnextoid=1a188ff806a41110VgnVCM1000000b205a0aRCRD,IVAN DE VARGAS,TRAVESIA,4,CARABANCHEL,40.40279748246847,-3.724235302224272
Instalación Deportiva Municipal Básica Jacinto Verdaguer,Superficie: 1.200 m2  Equipamientos:    1 Pista de baloncesto 1 Pista de fútbol sala 1 Pista de patinaje 2 Tenis de mesa,0,http://www.madrid.es/sites/v/index.jsp?vgnextchannel=bfa48ab43d6bb410VgnVCM100000171f5a0aRCRD&vgnextoid=09f5db6d12b41110VgnVCM1000000b205a0aRCRD,JACINTO VERDAGUER,CALLE,17,CARABANCHEL,40.395564824892936,-3.716746133835096
Instalación Deportiva Municipal Básica Jardines Alhambra,1 Pista de patinaje2 Pistas de chito,0,http://www.madrid.es/sites/v/index.jsp?vgnextchannel=bfa48ab43d6bb410VgnVCM100000171f5a0aRCRD&vgnextoid=6cee8fa983e12110VgnVCM1000000b205a0aRCRD,ALHAMBRA,CALLE,,LATINA,40.40293756394919,-3.744730107197148
Instalación Deportiva Municipal Básica Jardines General Fanjul,2 Pistas de fútbol sala1 Pista de baloncesto.,0,http://www.madrid.es/sites/v/index.jsp?vgnextchannel=bfa48ab43d6bb410VgnVCM100000171f5a0aRCRD&vgnextoid=d6c2ad4612e12110VgnVCM1000000b205a0aRCRD,LAS AGUILAS,AVENIDA,,LATINA,40.385197861740814,-3.761902410218776
Instalación Deportiva Municipal Básica Jardines Vía Carpetana,1 Pista de patinaje.,0,http://www.madrid.es/sites/v/index.jsp?vgnextchannel=bfa48ab43d6bb410VgnVCM100000171f5a0aRCRD&vgnextoid=c89910d87c902110VgnVCM1000000b205a0aRCRD,VIA CARPETANA,CALLE,S/N,LATINA,40.39252376178335,-3.74182286496722
Instalación Deportiva Municipal Básica Jardines de Bucaramanga,2 Pistas de baloncesto 3x3 2  Pistas de bolos y petanca 1 Pista de chito 1 Tenis de mesa,2,http://www.madrid.es/sites/v/index.jsp?vgnextchannel=bfa48ab43d6bb410VgnVCM100000171f5a0aRCRD&vgnextoid=6b769fbdc8e61110VgnVCM1000000b205a0aRCRD,BUCARAMANGA,AVENIDA,2,HORTALEZA,40.47216617986823,-3.638781934703648
Instalación Deportiva Municipal Básica Jardín Canarias,1 Pista de bolos 3 Pistas de petanca,0,http://www.madrid.es/sites/v/index.jsp?vgnextchannel=bfa48ab43d6bb410VgnVCM100000171f5a0aRCRD&vgnextoid=5b06e4148dde0110VgnVCM1000000b205a0aRCRD,CANARIAS,CALLE,19,ARGANZUELA,40.40224012314781,-3.694673997707994
Instalación Deportiva Municipal Básica Jardín Chico de la Eterna Sonrisa,Circuito de calistenia,0,http://www.madrid.es/sites/v/index.jsp?vgnextchannel=bfa48ab43d6bb410VgnVCM100000171f5a0aRCRD&vgnextoid=fab123eab8248810VgnVCM1000001d4a900aRCRD,LA RIOJA,CALLE,25,BARAJAS,40.45957494865393,-3.585736377839529
Instalación Deportiva Municipal Básica Jardín Papelera Peninsular,2 Pistas de tenis 2 Pistas de patinaje,0,http://www.madrid.es/sites/v/index.jsp?vgnextchannel=bfa48ab43d6bb410VgnVCM100000171f5a0aRCRD&vgnextoid=46864e10924d8210VgnVCM2000000c205a0aRCRD,ARGANDA,CALLE,3,ARGANZUELA,40.40021085294591,-3.708405149944905
Instalación Deportiva Municipal Básica Jardín de Portugalete,1 Pista de Baloncesto,1,http://www.madrid.es/sites/v/index.jsp?vgnextchannel=bfa48ab43d6bb410VgnVCM100000171f5a0aRCRD&vgnextoid=1e463c00a6a51110VgnVCM1000000b205a0aRCRD,ULISES,CALLE,23,HORTALEZA,40.45739950911607,-3.653455421613813
Instalación Deportiva Municipal Básica Jazmin,Pista polideportiva,0,http://www.madrid.es/sites/v/index.jsp?vgnextchannel=bfa48ab43d6bb410VgnVCM100000171f5a0aRCRD&vgnextoid=054de22597bed210VgnVCM1000000b205a0aRCRD,JAZMIN,CALLE,36,CIUDAD LINEAL,40.47862144632099,-3.6666387122877055
Instalación Deportiva Municipal Básica Jesús Aprendiz,1 Pista de Baloncesto1 Pista de Fútbol sala,0,http://www.madrid.es/sites/v/index.jsp?vgnextchannel=bfa48ab43d6bb410VgnVCM100000171f5a0aRCRD&vgnextoid=bcf31cb097c01110VgnVCM1000000b205a0aRCRD,ANTONIO DIAZ-CAÑABATE,CALLE,9,RETIRO,40.40922156877915,-3.671905186964673
Instalación Deportiva Municipal Básica Jesús Divino Obrero,1 Pista de fútbol sala cubierto 2 Pistas de baloncesto,0,http://www.madrid.es/sites/v/index.jsp?vgnextchannel=bfa48ab43d6bb410VgnVCM100000171f5a0aRCRD&vgnextoid=40a294617fcb2110VgnVCM1000000b205a0aRCRD,HUMANES,CALLE,10,PUENTE DE VALLECAS,40.39550954906577,-3.6481442409812352
Instalación Deportiva Municipal Básica Joaquín Ibarra,1 Pista de baloncesto1 Pista de voleibol,0,http://www.madrid.es/sites/v/index.jsp?vgnextchannel=bfa48ab43d6bb410VgnVCM100000171f5a0aRCRD&vgnextoid=1f15c4dfc1bd1110VgnVCM1000000b205a0aRCRD,JOAQUIN IBARRA,CALLE,S/N,BARAJAS,40.45993921141184,-3.593481240325868
Instalación Deportiva Municipal Básica José Durán,1 Pista de atletismo 1 Campo de fútbol 11 de césped artificial 3 Pistas polideportivas,0,http://www.madrid.es/sites/v/index.jsp?vgnextchannel=bfa48ab43d6bb410VgnVCM100000171f5a0aRCRD&vgnextoid=07c43faf12d96210VgnVCM2000000c205a0aRCRD,PARQUE DE PALOMERAS BAJAS,AVENIDA,10,PUENTE DE VALLECAS,40.3805444480093,-3.664316183074008
Instalación Deportiva Municipal Básica José Luis Sánchez Juez (antiguo Los Coronales),1 Campo de fútbol 11 (césped artificial),0,http://www.madrid.es/sites/v/index.jsp?vgnextchannel=bfa48ab43d6bb410VgnVCM100000171f5a0aRCRD&vgnextoid=c46e6210e00e1110VgnVCM1000000b205a0aRCRD,BAHIA DE MALAGA,CALLE,5,BARAJAS,40.46697124729341,-3.596008451250797
Instalación Deportiva Municipal Básica José de Cadalso,1 Pista de patinaje,0,http://www.madrid.es/sites/v/index.jsp?vgnextchannel=bfa48ab43d6bb410VgnVCM100000171f5a0aRCRD&vgnextoid=fe5ee4c9d1322110VgnVCM1000000b205a0aRCRD,JOSE DE CADALSO,CALLE,,LATINA,40.37780868617553,-3.768531953881764
Instalación Deportiva Municipal Básica José de Pasamonte,1 Pista de baloncesto,0,http://www.madrid.es/sites/v/index.jsp?vgnextchannel=bfa48ab43d6bb410VgnVCM100000171f5a0aRCRD&vgnextoid=0bdbc9ba6f391110VgnVCM2000000c205a0aRCRD,DOCTOR GARCIA TAPIA,AVENIDA,51,MORATALAZ,40.411890813674326,-3.646167263941804
Instalación Deportiva Municipal Básica Juan Clemente Núñez,1 Pista de fútbol sala,2,http://www.madrid.es/sites/v/index.jsp?vgnextchannel=bfa48ab43d6bb410VgnVCM100000171f5a0aRCRD&vgnextoid=6655dec5c4961110VgnVCM1000000b205a0aRCRD,JUAN CLEMENTE,CALLE,1,HORTALEZA,40.46196292860933,-3.6269611631430982
Instalación Deportiva Municipal Básica Juan de Mariana,1 Pista de fútbol-sala 2 Tenis de mesa,0,http://www.madrid.es/sites/v/index.jsp?vgnextchannel=bfa48ab43d6bb410VgnVCM100000171f5a0aRCRD&vgnextoid=b0c99b364bee0110VgnVCM1000000b205a0aRCRD,JUAN DE MARIANA,CALLE,8,ARGANZUELA,40.39848428796214,-3.686975938494456
Instalación Deportiva Municipal Básica Juan de Vera,1 Pista de baloncesto,0,http://www.madrid.es/sites/v/index.jsp?vgnextchannel=bfa48ab43d6bb410VgnVCM100000171f5a0aRCRD&vgnextoid=13ff1263d5d84110VgnVCM1000000b205a0aRCRD,CASAR DE CACERES,PLAZA,,ARGANZUELA,40.39617174301425,-3.6925495357594422
Instalación Deportiva Municipal Básica Julián González,1 Pista de baloncesto,0,http://www.madrid.es/sites/v/index.jsp?vgnextchannel=bfa48ab43d6bb410VgnVCM100000171f5a0aRCRD&vgnextoid=a39181f05ba65110VgnVCM1000000b205a0aRCRD,JULIAN GONZALEZ,CALLE,4,CARABANCHEL,40.39866543915771,-3.719406801437597
Instalación Deportiva Municipal Básica La Cabrera,1 Campo de fútbol (césped artificial). 2 Pistas de fútbol sala (césped artificial). 1 Minipitch 2 Tenis de Mesa.,0,http://www.madrid.es/sites/v/index.jsp?vgnextchannel=bfa48ab43d6bb410VgnVCM100000171f5a0aRCRD&vgnextoid=fafb36f24b291110VgnVCM2000000c205a0aRCRD,LA CABRERA,CALLE,33,FUENCARRAL-EL PARDO,40.4721901295831,-3.719058403445219
Instalación Deportiva Municipal Básica La Chimenea,1 Campo de fútbol 11 de césped artificial,2,http://www.madrid.es/sites/v/index.jsp?vgnextchannel=bfa48ab43d6bb410VgnVCM100000171f5a0aRCRD&vgnextoid=c7c1baac93dd1110VgnVCM1000000b205a0aRCRD,VALLANDES,CALLE,5,USERA,40.39095814922708,-3.70404293417357
Instalación Deportiva Municipal Básica La Chopera,1 Pista de fútbol sala1 Campo de fútbol (césped artificial),0,http://www.madrid.es/sites/v/index.jsp?vgnextchannel=bfa48ab43d6bb410VgnVCM100000171f5a0aRCRD&vgnextoid=3cff93375e201110VgnVCM1000000b205a0aRCRD,ESCULTOR PERESEJO,CALLE,86,MONCLOA-ARAVACA,40.45324709621828,-3.791691917222304
Instalación Deportiva Municipal Básica La Diligencia,Pistas de tenis,0,http://www.madrid.es/sites/v/index.jsp?vgnextchannel=bfa48ab43d6bb410VgnVCM100000171f5a0aRCRD&vgnextoid=48a82246ce7e5310VgnVCM2000000c205a0aRCRD,DILGENCIA,CALLE,7,PUENTE DE VALLECAS,40.3906112368466,-3.658959835961348
Instalación Deportiva Municipal Básica La Mancha,2 Pistas de tenis de mesa.,2,http://www.madrid.es/sites/v/index.jsp?vgnextchannel=bfa48ab43d6bb410VgnVCM100000171f5a0aRCRD&vgnextoid=e3ada2c4720e1110VgnVCM1000000b205a0aRCRD,TOMELLOSO,CALLE,21,USERA,40.3806576674271,-3.698610830055276
Instalación Deportiva Municipal Básica La Masó,15 pistas de pádel.,0,http://www.madrid.es/sites/v/index.jsp?vgnextchannel=bfa48ab43d6bb410VgnVCM100000171f5a0aRCRD&vgnextoid=32fe94a5989e0110VgnVCM1000000b205a0aRCRD,LA MASO,CALLE,34,FUENCARRAL-EL PARDO,40.48996671214207,-3.7143866142884456
Instalación Deportiva Municipal Básica La Perla,1 Campo de fútbol 11 de césped artificial 1 Pista de fútbol sala 4 Pistas de pádel,2,http://www.madrid.es/sites/v/index.jsp?vgnextchannel=bfa48ab43d6bb410VgnVCM100000171f5a0aRCRD&vgnextoid=93832246ce7e5310VgnVCM2000000c205a0aRCRD,CORINDON,CALLE,3,USERA,40.36727724832333,-3.689921583041418
Instalación Deportiva Municipal Básica Laminador de Tormentas - Valdebebas,4 Pistas polideportivas,0,http://www.madrid.es/sites/v/index.jsp?vgnextchannel=bfa48ab43d6bb410VgnVCM100000171f5a0aRCRD&vgnextoid=57c9d0a0401de610VgnVCM2000001f4a900aRCRD,Antonio Flórez s/n esquina avenida Francisco Javier Sáenz de Oiza,calle,,HORTALEZA,40.48903405047351,-3.641820720294248
Instalación Deportiva Municipal Básica Las Rosas,1 patinódromo,0,http://www.madrid.es/sites/v/index.jsp?vgnextchannel=bfa48ab43d6bb410VgnVCM100000171f5a0aRCRD&vgnextoid=4f50bc36145f5310VgnVCM1000000b205a0aRCRD,NIZA,AVENIDA,s/n,SAN BLAS-CANILLEJAS,40.42658241694823,-3.606662437467681
Instalación Deportiva Municipal Básica Las Vistillas,1 Pista de fútbol sala,0,http://www.madrid.es/sites/v/index.jsp?vgnextchannel=bfa48ab43d6bb410VgnVCM100000171f5a0aRCRD&vgnextoid=80725ad0e8099610VgnVCM1000001d4a900aRCRD,GABRIEL MIRO,PLAZA,,CENTRO,40.41246022343046,-3.714538784977571
Instalación Deportiva Municipal Básica Lili Alvarez,1 Campo de fútbol (césped artificial)1 Campo de fútbol 7 (césped artificial)4 Pistas de Padel1 Pista de baloncesto1 Pista de voleibol,0,http://www.madrid.es/sites/v/index.jsp?vgnextchannel=bfa48ab43d6bb410VgnVCM100000171f5a0aRCRD&vgnextoid=bca52a4e24891110VgnVCM2000000c205a0aRCRD,LA RIVIERA,CALLE,4,MORATALAZ,40.405822647416606,-3.629115151051316
Instalación Deportiva Municipal Básica Lonja de la Seda,1 Pista polideportiva1 Campo de baloncesto1 Pista de patinaje1 Pista de petanca,0,http://www.madrid.es/sites/v/index.jsp?vgnextchannel=bfa48ab43d6bb410VgnVCM100000171f5a0aRCRD&vgnextoid=18bad4e69dde8210VgnVCM2000000c205a0aRCRD,LONJA DE LA SEDA,CALLE,32,CARABANCHEL,40.36596587926967,-3.762461273109024
Instalación Deportiva Municipal Básica Los Arbolitos,1 Campo de fútbol 1 Pista de baloncesto,0,http://www.madrid.es/sites/v/index.jsp?vgnextchannel=bfa48ab43d6bb410VgnVCM100000171f5a0aRCRD&vgnextoid=569c1939773b2110VgnVCM1000000b205a0aRCRD,RONDA SUR,INST. DEPORTIVA BASICA,,PUENTE DE VALLECAS,40.37450207612977,-3.6633079961864072
Instalación Deportiva Municipal Básica Los Caprichos,EQUIPAMIENTOS    Unidades Deportivas al Aire Libre 2 Pistas de Tenis (1 con luz y otra sin luz) - 4 Pistas de Pádel - 1 Pista de Fútbol Sala (sin luz) - 2 Pistas de Baloncesto (sin luz)  Unidades Deportivas Cubiertas Sala Multiusos de Fitness Aeróbico,0,http://www.madrid.es/sites/v/index.jsp?vgnextchannel=bfa48ab43d6bb410VgnVCM100000171f5a0aRCRD&vgnextoid=d2370e840d2b2110VgnVCM1000000b205a0aRCRD,CAPRICHOS,AVENIDA,1,LATINA,40.40579744690797,-3.7285454246920935
Instalación Deportiva Municipal Básica Los Cármenes,2 Campos de fútbol (de tierra) 1 Pista de baloncesto 1 Pista de fútbol sala 1 Pista polideportiva (1 baloncesto y 4 voleibol) Tenis de mesa,0,http://www.madrid.es/sites/v/index.jsp?vgnextchannel=bfa48ab43d6bb410VgnVCM100000171f5a0aRCRD&vgnextoid=bc2abbcdb9902110VgnVCM1000000b205a0aRCRD,ALHAMBRA,CALLE,35,LATINA,40.39746568039038,-3.743856743935349
Instalación Deportiva Municipal Básica Los Llanos,1 Zona de calistenia 2 Pistas de tenis,1,http://www.madrid.es/sites/v/index.jsp?vgnextchannel=bfa48ab43d6bb410VgnVCM100000171f5a0aRCRD&vgnextoid=86b38e71e6e61110VgnVCM1000000b205a0aRCRD,FLORENCIO CASTILLO,CALLE,3,HORTALEZA,40.46090530019893,-3.627454138352421
Instalación Deportiva Municipal Básica Los Morales,1 Pista de baloncesto,0,http://www.madrid.es/sites/v/index.jsp?vgnextchannel=bfa48ab43d6bb410VgnVCM100000171f5a0aRCRD&vgnextoid=12af8ea1ffde8210VgnVCM2000000c205a0aRCRD,MORALES,CALLE,31,CARABANCHEL,40.360499290126505,-3.764896432162963
Instalación Deportiva Municipal Básica Los Morales - Patrimonio Humanidad I,1 Campo de fútbol Sala,0,http://www.madrid.es/sites/v/index.jsp?vgnextchannel=bfa48ab43d6bb410VgnVCM100000171f5a0aRCRD&vgnextoid=05088ea1ffde8210VgnVCM2000000c205a0aRCRD,PATRIMONIO DE LA HUMANIDAD,CALLE,37,CARABANCHEL,40.36210281029443,-3.763548377327485
Instalación Deportiva Municipal Básica Los Morales - Patrimonio Humanidad II,2 Pistas de petanca1 Pista de chito.,0,http://www.madrid.es/sites/v/index.jsp?vgnextchannel=bfa48ab43d6bb410VgnVCM100000171f5a0aRCRD&vgnextoid=20a06c64a0ee8210VgnVCM2000000c205a0aRCRD,MORALES,CALLE,,CARABANCHEL,40.36018168641368,-3.762513874140488
Instalación Deportiva Municipal Básica Los Poblados,1 Campo de fútbol1 Pista de baloncesto1 Pista de fútbol sala1 Pista de patinaje,0,http://www.madrid.es/sites/v/index.jsp?vgnextchannel=bfa48ab43d6bb410VgnVCM100000171f5a0aRCRD&vgnextoid=5456d915a1f65110VgnVCM1000000b205a0aRCRD,POBLADOS,AVENIDA,,CARABANCHEL,40.37350468781611,-3.7377388304920633
Instalación Deportiva Municipal Básica Los Rosales I,1 Pista de baloncesto.,0,http://www.madrid.es/sites/v/index.jsp?vgnextchannel=bfa48ab43d6bb410VgnVCM100000171f5a0aRCRD&vgnextoid=6912f12fa4f61110VgnVCM1000000b205a0aRCRD,LOS ROSALES,AVENIDA,131,VILLAVERDE,40.35175390495651,-3.677834634453844
Instalación Deportiva Municipal Básica Lucano,1 Campo de fútbol1 Pista polideportiva,0,http://www.madrid.es/sites/v/index.jsp?vgnextchannel=bfa48ab43d6bb410VgnVCM100000171f5a0aRCRD&vgnextoid=2675edf4b85e1110VgnVCM1000000b205a0aRCRD,LUCANO,CALLE,,SAN BLAS-CANILLEJAS,40.439035523688,-3.6095923854429737
Instalación Deportiva Municipal Básica Luis Buitrago,1 Pista de baloncesto 1 Pista de fútbol sala 1 Pista de patinaje 1 Rocódromo,2,http://www.madrid.es/sites/v/index.jsp?vgnextchannel=bfa48ab43d6bb410VgnVCM100000171f5a0aRCRD&vgnextoid=a11d575cf5f61110VgnVCM1000000b205a0aRCRD,LUIS BUITRAGO,CALLE,7,HORTALEZA,40.473376533828,-3.6511329371430814
Instalación Deportiva Municipal Básica Luis Mitjans,1 Pista de Baloncesto,0,http://www.madrid.es/sites/v/index.jsp?vgnextchannel=bfa48ab43d6bb410VgnVCM100000171f5a0aRCRD&vgnextoid=eb98ef23df201110VgnVCM1000000b205a0aRCRD,LUIS MITJANS,CALLE,15,RETIRO,40.4013474319257,-3.6703892095738806
Instalación Deportiva Municipal Básica Lyon - Flandes,1 Pista de fútbol sala,0,http://www.madrid.es/sites/v/index.jsp?vgnextchannel=bfa48ab43d6bb410VgnVCM100000171f5a0aRCRD&vgnextoid=8c07867f7e791110VgnVCM2000000c205a0aRCRD,LYON,CALLE,"136 (c/v Calle Flandes, 4 posterior)",MORATALAZ,40.40823993397687,-3.6302454961405033
Instalación Deportiva Municipal Básica Machupichu,Pista de fútbol sala (cubierta). Pista polideportiva.,2,http://www.madrid.es/sites/v/index.jsp?vgnextchannel=bfa48ab43d6bb410VgnVCM100000171f5a0aRCRD&vgnextoid=0245e57e04f61110VgnVCM1000000b205a0aRCRD,MACHUPICHU,AVENIDA,50,HORTALEZA,40.46090954739925,-3.6313861722687983
Instalación Deportiva Municipal Básica Madrid - Las Tablas,Pista de baloncesto. Campo de fútbol 7. Pista de hockey.,0,http://www.madrid.es/sites/v/index.jsp?vgnextchannel=bfa48ab43d6bb410VgnVCM100000171f5a0aRCRD&vgnextoid=0551a2d399a05310VgnVCM1000000b205a0aRCRD,FROMISTA,CALLE,5,FUENCARRAL-EL PARDO,40.50932926920616,-3.677183246701732
Instalación Deportiva Municipal Básica Madrid Sur,Pistas de Tenis,0,http://www.madrid.es/sites/v/index.jsp?vgnextchannel=bfa48ab43d6bb410VgnVCM100000171f5a0aRCRD&vgnextoid=11d6395961e4f010VgnVCM2000000c205a0aRCRD,PUERTO DE VELATE,CALLE,18,PUENTE DE VALLECAS,40.38353838821057,-3.657500728121157
Instalación Deportiva Municipal Básica Mallorca,2 Pistas de baloncesto.,0,http://www.madrid.es/sites/v/index.jsp?vgnextchannel=bfa48ab43d6bb410VgnVCM100000171f5a0aRCRD&vgnextoid=7e958d66a1891110VgnVCM1000000b205a0aRCRD,AGASTIA,CALLE,,CIUDAD LINEAL,40.44315431642945,-3.647398076003828
Instalación Deportiva Municipal Básica Manizales,1 Pista de fútbol sala,2,http://www.madrid.es/sites/v/index.jsp?vgnextchannel=bfa48ab43d6bb410VgnVCM100000171f5a0aRCRD&vgnextoid=f7bdcf0980a61110VgnVCM1000000b205a0aRCRD,GALAPA,CALLE,10,HORTALEZA,40.47408401293854,-3.638977064178449
Instalación Deportiva Municipal Básica Mar de Japón,1 Pista de Patinaje,2,http://www.madrid.es/sites/v/index.jsp?vgnextchannel=bfa48ab43d6bb410VgnVCM100000171f5a0aRCRD&vgnextoid=7edd9bddb2a61110VgnVCM1000000b205a0aRCRD,MAR DEL JAPON,CALLE,7,HORTALEZA,40.47319613951648,-3.641504969656448
Instalación Deportiva Municipal Básica Maracena,1 Pista de balonmano,2,http://www.madrid.es/sites/v/index.jsp?vgnextchannel=bfa48ab43d6bb410VgnVCM100000171f5a0aRCRD&vgnextoid=ddbf9695ed9e1110VgnVCM1000000b205a0aRCRD,MARACENA,CALLE,1,USERA,40.36926754309533,-3.6975509077822384
Instalación Deportiva Municipal Básica Maris Stella,1 Campo de fútbol 11 de césped artificial,2,http://www.madrid.es/sites/v/index.jsp?vgnextchannel=bfa48ab43d6bb410VgnVCM100000171f5a0aRCRD&vgnextoid=a7216210e00e1110VgnVCM1000000b205a0aRCRD,DOCTOR TOLOSA LATOUR,CALLE,18,USERA,40.37561971602255,-3.703376726464257
Instalación Deportiva Municipal Básica Martala I,Pista polideportiva (con marcajes de fútbol sala y 2 de baloncesto) 3 Pistas de Chito 3 Tenis de mesa,0,http://www.madrid.es/sites/v/index.jsp?vgnextchannel=bfa48ab43d6bb410VgnVCM100000171f5a0aRCRD&vgnextoid=ebc063952e391110VgnVCM2000000c205a0aRCRD,PICO DE LOS ARTILLEROS,CALLE,5,MORATALAZ,40.40890578131284,-3.6402341225344186
Instalación Deportiva Municipal Básica Maruja Mallo,1 Pista polideportiva,1,http://www.madrid.es/sites/v/index.jsp?vgnextchannel=bfa48ab43d6bb410VgnVCM100000171f5a0aRCRD&vgnextoid=ac493da191f61110VgnVCM1000000b205a0aRCRD,MARUJA MALLO,AVENIDA,7,HORTALEZA,40.4781907268689,-3.631028940050612
Instalación Deportiva Municipal Básica María Inmaculada,1 Pista polideportiva,0,http://www.madrid.es/sites/v/index.jsp?vgnextchannel=bfa48ab43d6bb410VgnVCM100000171f5a0aRCRD&vgnextoid=e15c12386f961110VgnVCM1000000b205a0aRCRD,CRUCES,CAMINO,,CARABANCHEL,40.37304552875526,-3.7572050357095375
Instalación Deportiva Municipal Básica María de Austria,1 Pista de chito1 Pista de petanca1 Pista de calva,0,http://www.madrid.es/sites/v/index.jsp?vgnextchannel=bfa48ab43d6bb410VgnVCM100000171f5a0aRCRD&vgnextoid=1115bed1e3f65110VgnVCM1000000b205a0aRCRD,EMPERATRIZ MARÍA DE AUSTRIA,PARQUE,,CARABANCHEL,40.379458518215856,-3.7265416703894902
Instalación Deportiva Municipal Básica Matilde Gayo,1 Pista de baloncesto. 1 Tenis de Mesa,2,http://www.madrid.es/sites/v/index.jsp?vgnextchannel=bfa48ab43d6bb410VgnVCM100000171f5a0aRCRD&vgnextoid=2ca8207c4a4e1110VgnVCM1000000b205a0aRCRD,MATILDE GAYO,CALLE,4,USERA,40.38993834608832,-3.702854085952854
Instalación Deportiva Municipal Básica Maíz,2 Tenis de mesa.,2,http://www.madrid.es/sites/v/index.jsp?vgnextchannel=bfa48ab43d6bb410VgnVCM100000171f5a0aRCRD&vgnextoid=71817ad2f95e1110VgnVCM1000000b205a0aRCRD,RICARDO BELTRAN Y ROZPIDE,CALLE,28,USERA,40.37541212545376,-3.7151896535378657
Instalación Deportiva Municipal Básica Medio Amposta,2 Pistas polideportivas,0,http://www.madrid.es/sites/v/index.jsp?vgnextchannel=bfa48ab43d6bb410VgnVCM100000171f5a0aRCRD&vgnextoid=e5289695ed9e1110VgnVCM1000000b205a0aRCRD,ALBERIQUE,CALLE,,SAN BLAS-CANILLEJAS,40.42900772144501,-3.6182140003992127
Instalación Deportiva Municipal Básica Mercedes Arteaga,1 Pista polideportiva,0,http://www.madrid.es/sites/v/index.jsp?vgnextchannel=bfa48ab43d6bb410VgnVCM100000171f5a0aRCRD&vgnextoid=483d9d7a55961110VgnVCM1000000b205a0aRCRD,MERCEDES ARTEAGA,CALLE,S/N,CARABANCHEL,40.39285448180102,-3.7223142167649614
Instalación Deportiva Municipal Básica Miguel Aracil,Pista de fútbol sala (tierra).,0,http://www.madrid.es/sites/v/index.jsp?vgnextchannel=bfa48ab43d6bb410VgnVCM100000171f5a0aRCRD&vgnextoid=d75730fdedac4110VgnVCM1000000b205a0aRCRD,JOAQUIN LORENZO,CALLE,39,FUENCARRAL-EL PARDO,40.47423740722562,-3.727338140512541
Instalación Deportiva Municipal Básica Miguel Hernández (Parque lineal del Manzanares),1 Pista de baloncesto  1 Pista de fútbol sala,0,http://www.madrid.es/sites/v/index.jsp?vgnextchannel=bfa48ab43d6bb410VgnVCM100000171f5a0aRCRD&vgnextoid=3118c53477db2110VgnVCM1000000b205a0aRCRD,MIGUEL HERNANDEZ,AVENIDA,48,PUENTE DE VALLECAS,40.388508655777855,-3.635010469489507
Instalación Deportiva Municipal Básica Miguel Riesco,1 Pista de baloncesto,1,http://www.madrid.es/sites/v/index.jsp?vgnextchannel=bfa48ab43d6bb410VgnVCM100000171f5a0aRCRD&vgnextoid=b7559d7a55961110VgnVCM1000000b205a0aRCRD,MIGUEL RIESCO,CALLE,7,HORTALEZA,40.46287029502265,-3.63217498812228
Instalación Deportiva Municipal Básica Miguel Riesco - Ramón Power,1 Pista de bolos y petanca2 Pistas de chito,0,http://www.madrid.es/sites/v/index.jsp?vgnextchannel=bfa48ab43d6bb410VgnVCM100000171f5a0aRCRD&vgnextoid=6b66d141f97c5110VgnVCM1000000b205a0aRCRD,MIGUEL RIESCO,CALLE,1,HORTALEZA,40.46193413382862,-3.632148755414652
Instalación Deportiva Municipal Básica Miguel Yuste,1 Pista de baloncesto1 Pista de fútbol sala,0,http://www.madrid.es/sites/v/index.jsp?vgnextchannel=bfa48ab43d6bb410VgnVCM100000171f5a0aRCRD&vgnextoid=264d8d498a5e1110VgnVCM1000000b205a0aRCRD,MIGUEL YUSTE,CALLE,,SAN BLAS-CANILLEJAS,40.434344810420576,-3.622554460244901
Instalación Deportiva Municipal Básica Minaya,1 Pista de Baloncesto,0,http://www.madrid.es/sites/v/index.jsp?vgnextchannel=bfa48ab43d6bb410VgnVCM100000171f5a0aRCRD&vgnextoid=493e5a1006961110VgnVCM1000000b205a0aRCRD,MINAYA,CALLE,5,HORTALEZA,40.46831590638329,-3.636138538132129
Instalación Deportiva Municipal Básica Mirador de la Reina (Cerro Minguete),1 Campo de fútbol 7 (césped artificial) 1 Pista polideportiva (con marcajes de baloncesto longitudinal y transversal y balonmano) 2 Pistas de tenis 2 Pistas de padel (de césped artificial) 1 Pista de bolos y petanca 2 Pistas de tenis de mesa,0,http://www.madrid.es/sites/v/index.jsp?vgnextchannel=bfa48ab43d6bb410VgnVCM100000171f5a0aRCRD&vgnextoid=72360e45fe291110VgnVCM2000000c205a0aRCRD,MIRADOR DE LA REINA,CALLE,2,FUENCARRAL-EL PARDO,40.48749191925204,-3.72696204399105
Instalación Deportiva Municipal Básica Mirasierra,Pista de baloncesto y pista polideportiva.,0,http://www.madrid.es/sites/v/index.jsp?vgnextchannel=bfa48ab43d6bb410VgnVCM100000171f5a0aRCRD&vgnextoid=beda96e321f05310VgnVCM1000000b205a0aRCRD,NURIA,CALLE,83,FUENCARRAL-EL PARDO,40.49489198180427,-3.711889917152989
Instalación Deportiva Municipal Básica Molino,2 Pistas de bolos y petanca.,0,http://www.madrid.es/sites/v/index.jsp?vgnextchannel=bfa48ab43d6bb410VgnVCM100000171f5a0aRCRD&vgnextoid=43cd6650164d8210VgnVCM2000000c205a0aRCRD,MOLINO,PASEO,2,ARGANZUELA,40.39048711965757,-3.6941878490165
Instalación Deportiva Municipal Básica Mondariz,Pista de fútbol sala y pista de balonmano.,0,http://www.madrid.es/sites/v/index.jsp?vgnextchannel=bfa48ab43d6bb410VgnVCM100000171f5a0aRCRD&vgnextoid=c117d9359e735310VgnVCM2000000c205a0aRCRD,MONDARIZ,PLAZA,1,FUENCARRAL-EL PARDO,40.478823680515,-3.70542012801282
Instalación Deportiva Municipal Básica Monovar,1 Pista de patinaje,0,http://www.madrid.es/sites/v/index.jsp?vgnextchannel=bfa48ab43d6bb410VgnVCM100000171f5a0aRCRD&vgnextoid=823c018d9d9a5310VgnVCM2000000c205a0aRCRD,MONOVAR,CALLE,3,HORTALEZA,40.4754249166852,-3.656909774001053
Instalación Deportiva Municipal Básica Montalbos,1 Pista de patinaje3 Pistas de chito,0,http://www.madrid.es/sites/v/index.jsp?vgnextchannel=bfa48ab43d6bb410VgnVCM100000171f5a0aRCRD&vgnextoid=9b19d141f97c5110VgnVCM1000000b205a0aRCRD,MONTALBOS,CALLE,14,HORTALEZA,40.46443633174865,-3.637175309306409
Instalación Deportiva Municipal Básica Montecarmelo,Pista de baloncesto. Campo de fútbol 7 (césped artificial). Pista de fútbol sala,0,http://www.madrid.es/sites/v/index.jsp?vgnextchannel=bfa48ab43d6bb410VgnVCM100000171f5a0aRCRD&vgnextoid=dc56395961e4f010VgnVCM2000000c205a0aRCRD,MONASTERIO DE EL PAULAR,CALLE,138,FUENCARRAL-EL PARDO,40.500438927851775,-3.700512809058562
Instalación Deportiva Municipal Básica Montecarmelo McDonald´s,Pista polideportiva.,0,http://www.madrid.es/sites/v/index.jsp?vgnextchannel=bfa48ab43d6bb410VgnVCM100000171f5a0aRCRD&vgnextoid=4f9419106482b610VgnVCM2000001f4a900aRCRD,MONTECARMELO,AVENIDA,1,FUENCARRAL-EL PARDO,40.50184008646731,-3.6969247603864392
Instalación Deportiva Municipal Básica Mártires Maristas,1 Pista de baloncesto.,0,http://www.madrid.es/sites/v/index.jsp?vgnextchannel=bfa48ab43d6bb410VgnVCM100000171f5a0aRCRD&vgnextoid=745473fc54ff0110VgnVCM1000000b205a0aRCRD,MARTIRES MARISTAS,AVENIDA,2,MONCLOA-ARAVACA,40.46223975914155,-3.719777931388968
Instalación Deportiva Municipal Básica Nevado de Cumbal,1 Campo de fútbol 11 de césped artificial (con 2 marcajes de fútbol 7),2,http://www.madrid.es/sites/v/index.jsp?vgnextchannel=bfa48ab43d6bb410VgnVCM100000171f5a0aRCRD&vgnextoid=c03a3c00a6a51110VgnVCM1000000b205a0aRCRD,NEVADO DEL CUMBAL,CALLE,4,HORTALEZA,40.46928001670359,-3.63118145043629
Instalación Deportiva Municipal Básica Nicolasa Gómez,1 Pista polideportiva,0,http://www.madrid.es/sites/v/index.jsp?vgnextchannel=bfa48ab43d6bb410VgnVCM100000171f5a0aRCRD&vgnextoid=f0afcfc5e5ae1110VgnVCM1000000b205a0aRCRD,NICOLASA GOMEZ,CALLE,1,SAN BLAS-CANILLEJAS,40.44448358264842,-3.615148388183279
Instalación Deportiva Municipal Básica Novecento,2 Pistas de baloncesto 1 Pista de voleibol,0,http://www.madrid.es/sites/v/index.jsp?vgnextchannel=bfa48ab43d6bb410VgnVCM100000171f5a0aRCRD&vgnextoid=2444df453adb2110VgnVCM1000000b205a0aRCRD,NOVECENTO,CALLE,6,PUENTE DE VALLECAS,40.37746079137422,-3.653695563861612
Instalación Deportiva Municipal Básica Nuestra Señora de Loreto,1 Pista de baloncesto,0,http://www.madrid.es/sites/v/index.jsp?vgnextchannel=bfa48ab43d6bb410VgnVCM100000171f5a0aRCRD&vgnextoid=50e8afe6d20e1110VgnVCM1000000b205a0aRCRD,TIMON,CALLE,16,BARAJAS,40.472636002948775,-3.585807144623962
Instalación Deportiva Municipal Básica Nuestra Señora de la Paloma,1 Pista Polideportiva,0,http://www.madrid.es/sites/v/index.jsp?vgnextchannel=bfa48ab43d6bb410VgnVCM100000171f5a0aRCRD&vgnextoid=8163d840e4623310VgnVCM2000000c205a0aRCRD,SAN FRANCISCO,CARRERA,4,CENTRO,40.41119640568488,-3.712232920009733
Instalación Deportiva Municipal Básica Nueva Esperanza,1 Pista de polideportiva1 Pista de patinaje,0,http://www.madrid.es/sites/v/index.jsp?vgnextchannel=bfa48ab43d6bb410VgnVCM100000171f5a0aRCRD&vgnextoid=e5fbfdaa18e61110VgnVCM1000000b205a0aRCRD,ANOETA,CALLE,1,VILLAVERDE,40.35262335736215,-3.69377598291594
Instalación Deportiva Municipal Básica Ontanilla,1 Campo de fútbol 7,0,http://www.madrid.es/sites/v/index.jsp?vgnextchannel=bfa48ab43d6bb410VgnVCM100000171f5a0aRCRD&vgnextoid=7036d915a1f65110VgnVCM1000000b205a0aRCRD,LOS POBLADOS,AVENIDA,,CARABANCHEL,40.37450904700692,-3.728526373827137
Instalación Deportiva Municipal Básica Orcasur II,2 Pistas de baloncesto  2 Pistas polideportivas  4 Tenis de mesa,2,http://www.madrid.es/sites/v/index.jsp?vgnextchannel=bfa48ab43d6bb410VgnVCM100000171f5a0aRCRD&vgnextoid=2058da3da4ce5310VgnVCM1000000b205a0aRCRD,ORCASUR,AVENIDA,53,USERA,40.36548482367132,-3.70183444457642
Instalación Deportiva Municipal Básica Orión-Jupiter,1 Pista de fútbol sala,0,http://www.madrid.es/sites/v/index.jsp?vgnextchannel=bfa48ab43d6bb410VgnVCM100000171f5a0aRCRD&vgnextoid=52e3b49e430e1110VgnVCM1000000b205a0aRCRD,ORION,CALLE,52,BARAJAS,40.47625087283375,-3.579998848197848
Instalación Deportiva Municipal Básica Oscar y Jesús,1 Campo de fútbol (de tierra) 1 Pista de fútbol sala (con equipamiento para baloncesto también) Tenis de mesa,0,http://www.madrid.es/sites/v/index.jsp?vgnextchannel=bfa48ab43d6bb410VgnVCM100000171f5a0aRCRD&vgnextoid=98bb53a201322110VgnVCM1000000b205a0aRCRD,SOLEDAD CAZORLA,CALLE,22,LATINA,40.37554983576344,-3.770874016639184
Instalación Deportiva Municipal Básica Oyarzun,2 Pistas de bolos y petanca,2,http://www.madrid.es/sites/v/index.jsp?vgnextchannel=bfa48ab43d6bb410VgnVCM100000171f5a0aRCRD&vgnextoid=494c39d8c6ae1110VgnVCM1000000b205a0aRCRD,OYARZUN,PLAZA,1,USERA,40.36828992969283,-3.7159977494418186
Instalación Deportiva Municipal Básica P.A.R. Antonio López,1 Pista Polideportiva,0,http://www.madrid.es/sites/v/index.jsp?vgnextchannel=bfa48ab43d6bb410VgnVCM100000171f5a0aRCRD&vgnextoid=647b204ea5971110VgnVCM1000000b205a0aRCRD,ANTONIO LOPEZ,CALLE,27,CARABANCHEL,40.39647249197412,-3.7127376145987054
Instalación Deportiva Municipal Básica P.A.R. Avda. Marqués de Corbera,1 Pista de patinaje,0,http://www.madrid.es/sites/v/index.jsp?vgnextchannel=bfa48ab43d6bb410VgnVCM100000171f5a0aRCRD&vgnextoid=120225f8c62a1110VgnVCM1000000b205a0aRCRD,MARQUES DE CORBERA,AVENIDA,62,CIUDAD LINEAL,40.42725047921714,-3.6495207954387703
Instalación Deportiva Municipal Básica P.A.R. Avenida Rafaela Ybarra,1 Pista de balonmano,2,http://www.madrid.es/sites/v/index.jsp?vgnextchannel=bfa48ab43d6bb410VgnVCM100000171f5a0aRCRD&vgnextoid=b03e6ec3035e1110VgnVCM1000000b205a0aRCRD,RAFAELA YBARRA,AVENIDA,51,USERA,40.38063517341089,-3.711168779281528
Instalación Deportiva Municipal Básica P.A.R. Manuel Noya,1 Pista de fútbol sala,2,http://www.madrid.es/sites/v/index.jsp?vgnextchannel=bfa48ab43d6bb410VgnVCM100000171f5a0aRCRD&vgnextoid=69561776595e1110VgnVCM1000000b205a0aRCRD,MANUEL NOYA,CALLE,2,USERA,40.38907128615593,-3.7120469132313434
Instalación Deportiva Municipal Básica P.A.R. Ramón Gómez de la Serna,1 pista de baloncesto,0,http://www.madrid.es/sites/v/index.jsp?vgnextchannel=bfa48ab43d6bb410VgnVCM100000171f5a0aRCRD&vgnextoid=4e76446a13a05310VgnVCM1000000b205a0aRCRD,RAMON GOMEZ DE LA SERNA,CALLE,49,FUENCARRAL-EL PARDO,40.483568695572096,-3.7247841639257406
Instalación Deportiva Municipal Básica Pablo Casals,1 Pista de Fútbol Sala,0,http://www.madrid.es/sites/v/index.jsp?vgnextchannel=bfa48ab43d6bb410VgnVCM100000171f5a0aRCRD&vgnextoid=d75d8672e92b2110VgnVCM1000000b205a0aRCRD,ERMITA DEL SANTO,PASEO,10,LATINA,40.41221418658154,-3.7238765894181416
Instalación Deportiva Municipal Básica Padre Claret,3 Pistas de Fútbol-Sala.,0,http://www.madrid.es/sites/v/index.jsp?vgnextchannel=bfa48ab43d6bb410VgnVCM100000171f5a0aRCRD&vgnextoid=d6151b0ae3654310VgnVCM1000000b205a0aRCRD,PADRE CLARET,CALLE,18,CHAMARTIN,40.44961759191476,-3.6641939594197392
Instalación Deportiva Municipal Básica Padre Damián,5 Pistas de Pádel,0,http://www.madrid.es/sites/v/index.jsp?vgnextchannel=bfa48ab43d6bb410VgnVCM100000171f5a0aRCRD&vgnextoid=cbf5c8d56fd81110VgnVCM1000000b205a0aRCRD,PADRE DAMIAN,CALLE,24,CHAMARTIN,40.4564696428582,-3.6862384384972176
Instalación Deportiva Municipal Básica Palomeras Bajas,1 Campo de fútbol 11 de césped artificial,0,http://www.madrid.es/sites/v/index.jsp?vgnextchannel=bfa48ab43d6bb410VgnVCM100000171f5a0aRCRD&vgnextoid=1f3800dcb2db2110VgnVCM1000000b205a0aRCRD,PUERTO DE BALBARAN,CALLE,6,PUENTE DE VALLECAS,40.37796856619296,-3.659660675353348
Instalación Deportiva Municipal Básica Parque Adelfas,1 Campo de Fútbol (de césped artificial)  2 Campos de chito  1 Pista de Baloncesto 1 Pista de pádel (cristal) Tenis de mesa,1,http://www.madrid.es/sites/v/index.jsp?vgnextchannel=bfa48ab43d6bb410VgnVCM100000171f5a0aRCRD&vgnextoid=71041c7a2c61c010VgnVCM1000000b205a0aRCRD,MARTINEZ CORROCHANO esquina  con calle Luis Mitjans,CALLE,26,RETIRO,40.40327621720137,-3.668687789801956
Instalación Deportiva Municipal Básica Parque Alfredo Kraus,1 Pista de chito,0,http://www.madrid.es/sites/v/index.jsp?vgnextchannel=bfa48ab43d6bb410VgnVCM100000171f5a0aRCRD&vgnextoid=8cc23b3737d35310VgnVCM2000000c205a0aRCRD,MAR ADRIATICO,CALLE,7,HORTALEZA,40.470138614017166,-3.638880685402964
Instalación Deportiva Municipal Básica Parque Aluche,1 Campo de fútbol (de tierra) 1 Campo de fútbol (de césped artificial) 1 Pista de fútbol sala 3 Pistas de baloncesto 6 Pistas de bolos y petanca 3 Pistas de chito (en recinto cerrado) Tenis de Mesa Circuito de bicicletas,0,http://www.madrid.es/sites/v/index.jsp?vgnextchannel=bfa48ab43d6bb410VgnVCM100000171f5a0aRCRD&vgnextoid=228a8244ca902110VgnVCM1000000b205a0aRCRD,VALMOJADO,CALLE,4,LATINA,40.39675520974048,-3.757541291696218
Instalación Deportiva Municipal Básica Parque Arroyo Fresno,1 Pista Polideportiva1 Pista Baloncesto,0,http://www.madrid.es/sites/v/index.jsp?vgnextchannel=bfa48ab43d6bb410VgnVCM100000171f5a0aRCRD&vgnextoid=cee3f106d5835310VgnVCM1000000b205a0aRCRD,VENTISQUERO DE LA CONDESA,AVENIDA,43,FUENCARRAL-EL PARDO,40.49284296962057,-3.7169069720385446
Instalación Deportiva Municipal Básica Parque Arroyo Pozuelo I,1 Pistas de baloncesto 1 Pista de baloncesto 3x3 1 Pista de fútbol sala Tenis de mesa,0,http://www.madrid.es/sites/v/index.jsp?vgnextchannel=bfa48ab43d6bb410VgnVCM100000171f5a0aRCRD&vgnextoid=3a23f1d46adf0110VgnVCM1000000b205a0aRCRD,ARROYO DE POZUELO,CALLE,10,MONCLOA-ARAVACA,40.451500510488586,-3.772885180717082
Instalación Deportiva Municipal Básica Parque Boadilla,1 Pista polideportiva1 Pista de baloncesto1 Pista de petanca,0,http://www.madrid.es/sites/v/index.jsp?vgnextchannel=bfa48ab43d6bb410VgnVCM100000171f5a0aRCRD&vgnextoid=a0d5dc38d4884110VgnVCM1000000b205a0aRCRD,BOADILLA DEL MONTE,CARRETERA,1,LATINA,40.39882092157157,-3.76670867691338
Instalación Deportiva Municipal Básica Parque Breogán,1 Campo de fútbol 7 (césped artificial)1 Pista de baloncesto1 Pista de fútbol sala4 Pistas de pádel1 Circuito de footing2 Tenis de mesa,1,http://www.madrid.es/sites/v/index.jsp?vgnextchannel=bfa48ab43d6bb410VgnVCM100000171f5a0aRCRD&vgnextoid=5aa6395961e4f010VgnVCM2000000c205a0aRCRD,BRASILIA,AVENIDA,2,SALAMANCA,40.43714103865148,-3.660887719467943
Instalación Deportiva Municipal Básica Parque Calle Onil,1 Pista de Fútbol Sala,0,http://www.madrid.es/sites/v/index.jsp?vgnextchannel=bfa48ab43d6bb410VgnVCM100000171f5a0aRCRD&vgnextoid=fce6339f272b2110VgnVCM1000000b205a0aRCRD,NAVIA,CALLE,12,LATINA,40.38610150059709,-3.7692152839405386
Instalación Deportiva Municipal Básica Parque Caramuel,1 Pista de patinaje,0,http://www.madrid.es/sites/v/index.jsp?vgnextchannel=bfa48ab43d6bb410VgnVCM100000171f5a0aRCRD&vgnextoid=4d0001ebdb902110VgnVCM1000000b205a0aRCRD,SEPULVEDA,CALLE,s/n,LATINA,40.40646058007316,-3.7291064770611655
